{
"type": "FeatureCollection",
"features": [
{ "type": "Feature", "properties": { "index": "r_l_n_1150", "FID": "DEA2D", "route_type": "rail_long", "stop_name": "Aachen Hbf" }, "geometry": { "type": "Point", "coordinates": [ 6.091499, 50.7678 ] } },
{ "type": "Feature", "properties": { "index": "r_l_n_73", "FID": "DEA2D", "route_type": "rail_long", "stop_name": "Aachen Hbf" }, "geometry": { "type": "Point", "coordinates": [ 6.091499, 50.7678 ] } },
{ "type": "Feature", "properties": { "index": "r_l_n_819", "FID": "DEA2D", "route_type": "rail_long", "stop_name": "Aachen Hbf" }, "geometry": { "type": "Point", "coordinates": [ 6.091499, 50.7678 ] } },
{ "type": "Feature", "properties": { "index": "r_l_n_504", "FID": "DEA2D", "route_type": "rail_long", "stop_name": "Aachen Süd(Gr)" }, "geometry": { "type": "Point", "coordinates": [ 6.04541, 50.731915 ] } },
{ "type": "Feature", "properties": { "index": "r_l_n_639", "FID": "DE11D", "route_type": "rail_long", "stop_name": "Aalen Hbf" }, "geometry": { "type": "Point", "coordinates": [ 10.096271, 48.841015 ] } },
{ "type": "Feature", "properties": { "index": "r_l_n_1010", "FID": "DE925", "route_type": "rail_long", "stop_name": "Alfeld(Leine)" }, "geometry": { "type": "Point", "coordinates": [ 9.817779, 51.98142 ] } },
{ "type": "Feature", "properties": { "index": "r_l_n_913", "FID": "DE925", "route_type": "rail_long", "stop_name": "Alfeld(Leine)" }, "geometry": { "type": "Point", "coordinates": [ 9.817779, 51.98142 ] } },
{ "type": "Feature", "properties": { "index": "r_l_n_1337", "FID": "DEA47", "route_type": "rail_long", "stop_name": "Altenbeken" }, "geometry": { "type": "Point", "coordinates": [ 8.943319, 51.766434 ] } },
{ "type": "Feature", "properties": { "index": "r_l_n_1414", "FID": "DEA47", "route_type": "rail_long", "stop_name": "Altenbeken" }, "geometry": { "type": "Point", "coordinates": [ 8.943319, 51.766434 ] } },
{ "type": "Feature", "properties": { "index": "r_l_n_1428", "FID": "DEB17", "route_type": "rail_long", "stop_name": "Andernach" }, "geometry": { "type": "Point", "coordinates": [ 7.404839, 50.434544 ] } },
{ "type": "Feature", "properties": { "index": "r_l_n_784", "FID": "DEB17", "route_type": "rail_long", "stop_name": "Andernach" }, "geometry": { "type": "Point", "coordinates": [ 7.404839, 50.434544 ] } },
{ "type": "Feature", "properties": { "index": "r_l_n_335", "FID": "DE40I", "route_type": "rail_long", "stop_name": "Angermünde" }, "geometry": { "type": "Point", "coordinates": [ 13.996361, 53.01522 ] } },
{ "type": "Feature", "properties": { "index": "r_l_n_76", "FID": "DE80N", "route_type": "rail_long", "stop_name": "Anklam" }, "geometry": { "type": "Point", "coordinates": [ 13.701827, 53.856102 ] } },
{ "type": "Feature", "properties": { "index": "r_l_n_762", "FID": "DE80N", "route_type": "rail_long", "stop_name": "Anklam" }, "geometry": { "type": "Point", "coordinates": [ 13.701827, 53.856102 ] } },
{ "type": "Feature", "properties": { "index": "r_l_n_1026", "FID": "DE251", "route_type": "rail_long", "stop_name": "Ansbach" }, "geometry": { "type": "Point", "coordinates": [ 10.578239, 49.29803 ] } },
{ "type": "Feature", "properties": { "index": "r_l_n_1262", "FID": "DE251", "route_type": "rail_long", "stop_name": "Ansbach" }, "geometry": { "type": "Point", "coordinates": [ 10.578239, 49.29803 ] } },
{ "type": "Feature", "properties": { "index": "r_l_n_435", "FID": "DE251", "route_type": "rail_long", "stop_name": "Ansbach" }, "geometry": { "type": "Point", "coordinates": [ 10.578239, 49.29803 ] } },
{ "type": "Feature", "properties": { "index": "r_l_n_730", "FID": "DE251", "route_type": "rail_long", "stop_name": "Ansbach" }, "geometry": { "type": "Point", "coordinates": [ 10.578239, 49.29803 ] } },
{ "type": "Feature", "properties": { "index": "r_l_n_1167", "FID": "DEG0G", "route_type": "rail_long", "stop_name": "Apolda" }, "geometry": { "type": "Point", "coordinates": [ 11.526136, 51.03094 ] } },
{ "type": "Feature", "properties": { "index": "r_l_n_1194", "FID": "DEG0G", "route_type": "rail_long", "stop_name": "Apolda" }, "geometry": { "type": "Point", "coordinates": [ 11.526136, 51.03094 ] } },
{ "type": "Feature", "properties": { "index": "r_l_n_213", "FID": "DE261", "route_type": "rail_long", "stop_name": "Aschaffenburg Hbf" }, "geometry": { "type": "Point", "coordinates": [ 9.143697, 49.980556 ] } },
{ "type": "Feature", "properties": { "index": "r_l_n_34", "FID": "DE261", "route_type": "rail_long", "stop_name": "Aschaffenburg Hbf" }, "geometry": { "type": "Point", "coordinates": [ 9.143697, 49.980556 ] } },
{ "type": "Feature", "properties": { "index": "r_l_n_941", "FID": "DE261", "route_type": "rail_long", "stop_name": "Aschaffenburg Hbf" }, "geometry": { "type": "Point", "coordinates": [ 9.143697, 49.980556 ] } },
{ "type": "Feature", "properties": { "index": "r_l_n_175", "FID": "DE271", "route_type": "rail_long", "stop_name": "Augsburg Hbf" }, "geometry": { "type": "Point", "coordinates": [ 10.88557, 48.36544 ] } },
{ "type": "Feature", "properties": { "index": "r_l_n_29", "FID": "DE271", "route_type": "rail_long", "stop_name": "Augsburg Hbf" }, "geometry": { "type": "Point", "coordinates": [ 10.88557, 48.36544 ] } },
{ "type": "Feature", "properties": { "index": "r_l_n_369", "FID": "DE271", "route_type": "rail_long", "stop_name": "Augsburg Hbf" }, "geometry": { "type": "Point", "coordinates": [ 10.88557, 48.36544 ] } },
{ "type": "Feature", "properties": { "index": "r_l_n_384", "FID": "DE271", "route_type": "rail_long", "stop_name": "Augsburg Hbf" }, "geometry": { "type": "Point", "coordinates": [ 10.88557, 48.36544 ] } },
{ "type": "Feature", "properties": { "index": "r_l_n_602", "FID": "DE271", "route_type": "rail_long", "stop_name": "Augsburg Hbf" }, "geometry": { "type": "Point", "coordinates": [ 10.88557, 48.36544 ] } },
{ "type": "Feature", "properties": { "index": "r_l_n_984", "FID": "DE271", "route_type": "rail_long", "stop_name": "Augsburg Hbf" }, "geometry": { "type": "Point", "coordinates": [ 10.88557, 48.36544 ] } },
{ "type": "Feature", "properties": { "index": "r_l_n_121", "FID": "DE946", "route_type": "rail_long", "stop_name": "Augustfehn" }, "geometry": { "type": "Point", "coordinates": [ 7.759659, 53.22089 ] } },
{ "type": "Feature", "properties": { "index": "r_l_n_371", "FID": "DE946", "route_type": "rail_long", "stop_name": "Augustfehn" }, "geometry": { "type": "Point", "coordinates": [ 7.759659, 53.22089 ] } },
{ "type": "Feature", "properties": { "index": "r_l_n_1412", "FID": "DE94B", "route_type": "rail_long", "stop_name": "Bad Bentheim" }, "geometry": { "type": "Point", "coordinates": [ 7.158539, 52.30985 ] } },
{ "type": "Feature", "properties": { "index": "r_l_n_492", "FID": "DE94B", "route_type": "rail_long", "stop_name": "Bad Bentheim" }, "geometry": { "type": "Point", "coordinates": [ 7.158539, 52.30985 ] } },
{ "type": "Feature", "properties": { "index": "r_l_n_319", "FID": "DE94B", "route_type": "rail_long", "stop_name": "Bad Bentheim(Gr)" }, "geometry": { "type": "Point", "coordinates": [ 7.04016, 52.3091 ] } },
{ "type": "Feature", "properties": { "index": "r_l_n_1088", "FID": "DE93A", "route_type": "rail_long", "stop_name": "Bad Bevensen" }, "geometry": { "type": "Point", "coordinates": [ 10.574141, 53.078247 ] } },
{ "type": "Feature", "properties": { "index": "r_l_n_344", "FID": "DE93A", "route_type": "rail_long", "stop_name": "Bad Bevensen" }, "geometry": { "type": "Point", "coordinates": [ 10.574141, 53.078247 ] } },
{ "type": "Feature", "properties": { "index": "r_l_n_552", "FID": "DE21K", "route_type": "rail_long", "stop_name": "Bad Endorf" }, "geometry": { "type": "Point", "coordinates": [ 12.301558, 47.905067 ] } },
{ "type": "Feature", "properties": { "index": "r_l_n_988", "FID": "DE21K", "route_type": "rail_long", "stop_name": "Bad Endorf" }, "geometry": { "type": "Point", "coordinates": [ 12.301558, 47.905067 ] } },
{ "type": "Feature", "properties": { "index": "r_l_n_418", "FID": "DE733", "route_type": "rail_long", "stop_name": "Bad Hersfeld" }, "geometry": { "type": "Point", "coordinates": [ 9.716182, 50.869633 ] } },
{ "type": "Feature", "properties": { "index": "r_l_n_99", "FID": "DE733", "route_type": "rail_long", "stop_name": "Bad Hersfeld" }, "geometry": { "type": "Point", "coordinates": [ 9.716182, 50.869633 ] } },
{ "type": "Feature", "properties": { "index": "r_l_n_1073", "FID": "DE80M", "route_type": "rail_long", "stop_name": "Bad Kleinen" }, "geometry": { "type": "Point", "coordinates": [ 11.466925, 53.766975 ] } },
{ "type": "Feature", "properties": { "index": "r_l_n_215", "FID": "DE80M", "route_type": "rail_long", "stop_name": "Bad Kleinen" }, "geometry": { "type": "Point", "coordinates": [ 11.466925, 53.766975 ] } },
{ "type": "Feature", "properties": { "index": "r_l_n_1425", "FID": "DE132", "route_type": "rail_long", "stop_name": "Bad Krozingen" }, "geometry": { "type": "Point", "coordinates": [ 7.697632, 47.91972 ] } },
{ "type": "Feature", "properties": { "index": "r_l_n_17", "FID": "DEA46", "route_type": "rail_long", "stop_name": "Bad Oeynhausen" }, "geometry": { "type": "Point", "coordinates": [ 8.796523, 52.2054 ] } },
{ "type": "Feature", "properties": { "index": "r_l_n_678", "FID": "DEA46", "route_type": "rail_long", "stop_name": "Bad Oeynhausen" }, "geometry": { "type": "Point", "coordinates": [ 8.796523, 52.2054 ] } },
{ "type": "Feature", "properties": { "index": "r_l_n_1223", "FID": "DED2F", "route_type": "rail_long", "stop_name": "Bad Schandau" }, "geometry": { "type": "Point", "coordinates": [ 14.137538, 50.91929 ] } },
{ "type": "Feature", "properties": { "index": "r_l_n_22", "FID": "DED2F", "route_type": "rail_long", "stop_name": "Bad Schandau" }, "geometry": { "type": "Point", "coordinates": [ 14.137538, 50.91929 ] } },
{ "type": "Feature", "properties": { "index": "r_l_n_16", "FID": "DE946", "route_type": "rail_long", "stop_name": "Bad Zwischenahn" }, "geometry": { "type": "Point", "coordinates": [ 8.003123, 53.18255 ] } },
{ "type": "Feature", "properties": { "index": "r_l_n_221", "FID": "DE121", "route_type": "rail_long", "stop_name": "Baden-Baden" }, "geometry": { "type": "Point", "coordinates": [ 8.190831, 48.790325 ] } },
{ "type": "Feature", "properties": { "index": "r_l_n_871", "FID": "DE121", "route_type": "rail_long", "stop_name": "Baden-Baden" }, "geometry": { "type": "Point", "coordinates": [ 8.190831, 48.790325 ] } },
{ "type": "Feature", "properties": { "index": "r_l_n_1146", "FID": "DE241", "route_type": "rail_long", "stop_name": "Bamberg" }, "geometry": { "type": "Point", "coordinates": [ 10.899489, 49.90076 ] } },
{ "type": "Feature", "properties": { "index": "r_l_n_1339", "FID": "DE241", "route_type": "rail_long", "stop_name": "Bamberg" }, "geometry": { "type": "Point", "coordinates": [ 10.899489, 49.90076 ] } },
{ "type": "Feature", "properties": { "index": "r_l_n_1087", "FID": "DE733", "route_type": "rail_long", "stop_name": "Bebra" }, "geometry": { "type": "Point", "coordinates": [ 9.797788, 50.969566 ] } },
{ "type": "Feature", "properties": { "index": "r_l_n_878", "FID": "DE733", "route_type": "rail_long", "stop_name": "Bebra" }, "geometry": { "type": "Point", "coordinates": [ 9.797788, 50.969566 ] } },
{ "type": "Feature", "properties": { "index": "r_l_n_888", "FID": "DE733", "route_type": "rail_long", "stop_name": "Bebra" }, "geometry": { "type": "Point", "coordinates": [ 9.797788, 50.969566 ] } },
{ "type": "Feature", "properties": { "index": "r_l_n_136", "FID": "DE715", "route_type": "rail_long", "stop_name": "Bensheim" }, "geometry": { "type": "Point", "coordinates": [ 8.616717, 49.681328 ] } },
{ "type": "Feature", "properties": { "index": "r_l_n_669", "FID": "DE715", "route_type": "rail_long", "stop_name": "Bensheim" }, "geometry": { "type": "Point", "coordinates": [ 8.616717, 49.681328 ] } },
{ "type": "Feature", "properties": { "index": "r_l_n_1219", "FID": "DE80L", "route_type": "rail_long", "stop_name": "Bergen auf Rügen" }, "geometry": { "type": "Point", "coordinates": [ 13.417821, 54.4205 ] } },
{ "type": "Feature", "properties": { "index": "r_l_n_743", "FID": "DE80L", "route_type": "rail_long", "stop_name": "Bergen auf Rügen" }, "geometry": { "type": "Point", "coordinates": [ 13.417821, 54.4205 ] } },
{ "type": "Feature", "properties": { "index": "r_l_n_1062", "FID": "DE300", "route_type": "rail_long", "stop_name": "Berlin Gesundbrunnen" }, "geometry": { "type": "Point", "coordinates": [ 13.388513, 52.54896 ] } },
{ "type": "Feature", "properties": { "index": "r_l_n_1105", "FID": "DE300", "route_type": "rail_long", "stop_name": "Berlin Gesundbrunnen" }, "geometry": { "type": "Point", "coordinates": [ 13.388513, 52.54896 ] } },
{ "type": "Feature", "properties": { "index": "r_l_n_1199", "FID": "DE300", "route_type": "rail_long", "stop_name": "Berlin Gesundbrunnen" }, "geometry": { "type": "Point", "coordinates": [ 13.388513, 52.54896 ] } },
{ "type": "Feature", "properties": { "index": "r_l_n_1227", "FID": "DE300", "route_type": "rail_long", "stop_name": "Berlin Gesundbrunnen" }, "geometry": { "type": "Point", "coordinates": [ 13.388513, 52.54896 ] } },
{ "type": "Feature", "properties": { "index": "r_l_n_162", "FID": "DE300", "route_type": "rail_long", "stop_name": "Berlin Gesundbrunnen" }, "geometry": { "type": "Point", "coordinates": [ 13.388513, 52.54896 ] } },
{ "type": "Feature", "properties": { "index": "r_l_n_354", "FID": "DE300", "route_type": "rail_long", "stop_name": "Berlin Gesundbrunnen" }, "geometry": { "type": "Point", "coordinates": [ 13.388513, 52.54896 ] } },
{ "type": "Feature", "properties": { "index": "r_l_n_362", "FID": "DE300", "route_type": "rail_long", "stop_name": "Berlin Gesundbrunnen" }, "geometry": { "type": "Point", "coordinates": [ 13.388513, 52.54896 ] } },
{ "type": "Feature", "properties": { "index": "r_l_n_461", "FID": "DE300", "route_type": "rail_long", "stop_name": "Berlin Gesundbrunnen" }, "geometry": { "type": "Point", "coordinates": [ 13.388513, 52.54896 ] } },
{ "type": "Feature", "properties": { "index": "r_l_n_500", "FID": "DE300", "route_type": "rail_long", "stop_name": "Berlin Gesundbrunnen" }, "geometry": { "type": "Point", "coordinates": [ 13.388513, 52.54896 ] } },
{ "type": "Feature", "properties": { "index": "r_l_n_514", "FID": "DE300", "route_type": "rail_long", "stop_name": "Berlin Gesundbrunnen" }, "geometry": { "type": "Point", "coordinates": [ 13.388513, 52.54896 ] } },
{ "type": "Feature", "properties": { "index": "r_l_n_54", "FID": "DE300", "route_type": "rail_long", "stop_name": "Berlin Gesundbrunnen" }, "geometry": { "type": "Point", "coordinates": [ 13.388513, 52.54896 ] } },
{ "type": "Feature", "properties": { "index": "r_l_n_570", "FID": "DE300", "route_type": "rail_long", "stop_name": "Berlin Gesundbrunnen" }, "geometry": { "type": "Point", "coordinates": [ 13.388513, 52.54896 ] } },
{ "type": "Feature", "properties": { "index": "r_l_n_689", "FID": "DE300", "route_type": "rail_long", "stop_name": "Berlin Gesundbrunnen" }, "geometry": { "type": "Point", "coordinates": [ 13.388513, 52.54896 ] } },
{ "type": "Feature", "properties": { "index": "r_l_n_848", "FID": "DE300", "route_type": "rail_long", "stop_name": "Berlin Gesundbrunnen" }, "geometry": { "type": "Point", "coordinates": [ 13.388513, 52.54896 ] } },
{ "type": "Feature", "properties": { "index": "r_l_n_880", "FID": "DE300", "route_type": "rail_long", "stop_name": "Berlin Gesundbrunnen" }, "geometry": { "type": "Point", "coordinates": [ 13.388513, 52.54896 ] } },
{ "type": "Feature", "properties": { "index": "r_l_n_1027", "FID": "DE300", "route_type": "rail_long", "stop_name": "Berlin Hbf" }, "geometry": { "type": "Point", "coordinates": [ 13.369545, 52.525593 ] } },
{ "type": "Feature", "properties": { "index": "r_l_n_1411", "FID": "DE300", "route_type": "rail_long", "stop_name": "Berlin Hbf" }, "geometry": { "type": "Point", "coordinates": [ 13.369545, 52.525593 ] } },
{ "type": "Feature", "properties": { "index": "r_l_n_185", "FID": "DE300", "route_type": "rail_long", "stop_name": "Berlin Hbf" }, "geometry": { "type": "Point", "coordinates": [ 13.369545, 52.525593 ] } },
{ "type": "Feature", "properties": { "index": "r_l_n_246", "FID": "DE300", "route_type": "rail_long", "stop_name": "Berlin Hbf" }, "geometry": { "type": "Point", "coordinates": [ 13.369545, 52.525593 ] } },
{ "type": "Feature", "properties": { "index": "r_l_n_462", "FID": "DE300", "route_type": "rail_long", "stop_name": "Berlin Hbf" }, "geometry": { "type": "Point", "coordinates": [ 13.369545, 52.525593 ] } },
{ "type": "Feature", "properties": { "index": "r_l_n_566", "FID": "DE300", "route_type": "rail_long", "stop_name": "Berlin Hbf" }, "geometry": { "type": "Point", "coordinates": [ 13.369545, 52.525593 ] } },
{ "type": "Feature", "properties": { "index": "r_l_n_600", "FID": "DE300", "route_type": "rail_long", "stop_name": "Berlin Hbf" }, "geometry": { "type": "Point", "coordinates": [ 13.369545, 52.525593 ] } },
{ "type": "Feature", "properties": { "index": "r_l_n_70", "FID": "DE300", "route_type": "rail_long", "stop_name": "Berlin Hbf" }, "geometry": { "type": "Point", "coordinates": [ 13.369545, 52.525593 ] } },
{ "type": "Feature", "properties": { "index": "r_l_n_972", "FID": "DE300", "route_type": "rail_long", "stop_name": "Berlin Hbf" }, "geometry": { "type": "Point", "coordinates": [ 13.369545, 52.525593 ] } },
{ "type": "Feature", "properties": { "index": "r_l_n_103", "FID": "DE300", "route_type": "rail_long", "stop_name": "Berlin Hbf (tief)" }, "geometry": { "type": "Point", "coordinates": [ 13.369545, 52.525593 ] } },
{ "type": "Feature", "properties": { "index": "r_l_n_1162", "FID": "DE300", "route_type": "rail_long", "stop_name": "Berlin Hbf (tief)" }, "geometry": { "type": "Point", "coordinates": [ 13.369545, 52.525593 ] } },
{ "type": "Feature", "properties": { "index": "r_l_n_1183", "FID": "DE300", "route_type": "rail_long", "stop_name": "Berlin Hbf (tief)" }, "geometry": { "type": "Point", "coordinates": [ 13.369545, 52.525593 ] } },
{ "type": "Feature", "properties": { "index": "r_l_n_1201", "FID": "DE300", "route_type": "rail_long", "stop_name": "Berlin Hbf (tief)" }, "geometry": { "type": "Point", "coordinates": [ 13.369545, 52.525593 ] } },
{ "type": "Feature", "properties": { "index": "r_l_n_1220", "FID": "DE300", "route_type": "rail_long", "stop_name": "Berlin Hbf (tief)" }, "geometry": { "type": "Point", "coordinates": [ 13.369545, 52.525593 ] } },
{ "type": "Feature", "properties": { "index": "r_l_n_1232", "FID": "DE300", "route_type": "rail_long", "stop_name": "Berlin Hbf (tief)" }, "geometry": { "type": "Point", "coordinates": [ 13.369545, 52.525593 ] } },
{ "type": "Feature", "properties": { "index": "r_l_n_1271", "FID": "DE300", "route_type": "rail_long", "stop_name": "Berlin Hbf (tief)" }, "geometry": { "type": "Point", "coordinates": [ 13.369545, 52.525593 ] } },
{ "type": "Feature", "properties": { "index": "r_l_n_1296", "FID": "DE300", "route_type": "rail_long", "stop_name": "Berlin Hbf (tief)" }, "geometry": { "type": "Point", "coordinates": [ 13.369545, 52.525593 ] } },
{ "type": "Feature", "properties": { "index": "r_l_n_1404", "FID": "DE300", "route_type": "rail_long", "stop_name": "Berlin Hbf (tief)" }, "geometry": { "type": "Point", "coordinates": [ 13.369545, 52.525593 ] } },
{ "type": "Feature", "properties": { "index": "r_l_n_174", "FID": "DE300", "route_type": "rail_long", "stop_name": "Berlin Hbf (tief)" }, "geometry": { "type": "Point", "coordinates": [ 13.369545, 52.525593 ] } },
{ "type": "Feature", "properties": { "index": "r_l_n_184", "FID": "DE300", "route_type": "rail_long", "stop_name": "Berlin Hbf (tief)" }, "geometry": { "type": "Point", "coordinates": [ 13.369545, 52.525593 ] } },
{ "type": "Feature", "properties": { "index": "r_l_n_240", "FID": "DE300", "route_type": "rail_long", "stop_name": "Berlin Hbf (tief)" }, "geometry": { "type": "Point", "coordinates": [ 13.369545, 52.525593 ] } },
{ "type": "Feature", "properties": { "index": "r_l_n_284", "FID": "DE300", "route_type": "rail_long", "stop_name": "Berlin Hbf (tief)" }, "geometry": { "type": "Point", "coordinates": [ 13.369545, 52.525593 ] } },
{ "type": "Feature", "properties": { "index": "r_l_n_413", "FID": "DE300", "route_type": "rail_long", "stop_name": "Berlin Hbf (tief)" }, "geometry": { "type": "Point", "coordinates": [ 13.369545, 52.525593 ] } },
{ "type": "Feature", "properties": { "index": "r_l_n_420", "FID": "DE300", "route_type": "rail_long", "stop_name": "Berlin Hbf (tief)" }, "geometry": { "type": "Point", "coordinates": [ 13.369545, 52.525593 ] } },
{ "type": "Feature", "properties": { "index": "r_l_n_48", "FID": "DE300", "route_type": "rail_long", "stop_name": "Berlin Hbf (tief)" }, "geometry": { "type": "Point", "coordinates": [ 13.369545, 52.525593 ] } },
{ "type": "Feature", "properties": { "index": "r_l_n_51", "FID": "DE300", "route_type": "rail_long", "stop_name": "Berlin Hbf (tief)" }, "geometry": { "type": "Point", "coordinates": [ 13.369545, 52.525593 ] } },
{ "type": "Feature", "properties": { "index": "r_l_n_789", "FID": "DE300", "route_type": "rail_long", "stop_name": "Berlin Hbf (tief)" }, "geometry": { "type": "Point", "coordinates": [ 13.369545, 52.525593 ] } },
{ "type": "Feature", "properties": { "index": "r_l_n_805", "FID": "DE300", "route_type": "rail_long", "stop_name": "Berlin Hbf (tief)" }, "geometry": { "type": "Point", "coordinates": [ 13.369545, 52.525593 ] } },
{ "type": "Feature", "properties": { "index": "r_l_n_846", "FID": "DE300", "route_type": "rail_long", "stop_name": "Berlin Hbf (tief)" }, "geometry": { "type": "Point", "coordinates": [ 13.369545, 52.525593 ] } },
{ "type": "Feature", "properties": { "index": "r_l_n_859", "FID": "DE300", "route_type": "rail_long", "stop_name": "Berlin Hbf (tief)" }, "geometry": { "type": "Point", "coordinates": [ 13.369545, 52.525593 ] } },
{ "type": "Feature", "properties": { "index": "r_l_n_91", "FID": "DE300", "route_type": "rail_long", "stop_name": "Berlin Hbf (tief)" }, "geometry": { "type": "Point", "coordinates": [ 13.369545, 52.525593 ] } },
{ "type": "Feature", "properties": { "index": "r_l_n_923", "FID": "DE300", "route_type": "rail_long", "stop_name": "Berlin Hbf (tief)" }, "geometry": { "type": "Point", "coordinates": [ 13.369545, 52.525593 ] } },
{ "type": "Feature", "properties": { "index": "r_l_n_978", "FID": "DE300", "route_type": "rail_long", "stop_name": "Berlin Hbf (tief)" }, "geometry": { "type": "Point", "coordinates": [ 13.369545, 52.525593 ] } },
{ "type": "Feature", "properties": { "index": "r_l_n_1208", "FID": "DE300", "route_type": "rail_long", "stop_name": "Berlin Ostbahnhof" }, "geometry": { "type": "Point", "coordinates": [ 13.434681, 52.510487 ] } },
{ "type": "Feature", "properties": { "index": "r_l_n_1342", "FID": "DE300", "route_type": "rail_long", "stop_name": "Berlin Ostbahnhof" }, "geometry": { "type": "Point", "coordinates": [ 13.434681, 52.510487 ] } },
{ "type": "Feature", "properties": { "index": "r_l_n_32", "FID": "DE300", "route_type": "rail_long", "stop_name": "Berlin Ostbahnhof" }, "geometry": { "type": "Point", "coordinates": [ 13.434681, 52.510487 ] } },
{ "type": "Feature", "properties": { "index": "r_l_n_338", "FID": "DE300", "route_type": "rail_long", "stop_name": "Berlin Ostbahnhof" }, "geometry": { "type": "Point", "coordinates": [ 13.434681, 52.510487 ] } },
{ "type": "Feature", "properties": { "index": "r_l_n_395", "FID": "DE300", "route_type": "rail_long", "stop_name": "Berlin Ostbahnhof" }, "geometry": { "type": "Point", "coordinates": [ 13.434681, 52.510487 ] } },
{ "type": "Feature", "properties": { "index": "r_l_n_661", "FID": "DE300", "route_type": "rail_long", "stop_name": "Berlin Ostbahnhof" }, "geometry": { "type": "Point", "coordinates": [ 13.434681, 52.510487 ] } },
{ "type": "Feature", "properties": { "index": "r_l_n_725", "FID": "DE300", "route_type": "rail_long", "stop_name": "Berlin Ostbahnhof" }, "geometry": { "type": "Point", "coordinates": [ 13.434681, 52.510487 ] } },
{ "type": "Feature", "properties": { "index": "r_l_n_77", "FID": "DE300", "route_type": "rail_long", "stop_name": "Berlin Ostbahnhof" }, "geometry": { "type": "Point", "coordinates": [ 13.434681, 52.510487 ] } },
{ "type": "Feature", "properties": { "index": "r_l_n_776", "FID": "DE300", "route_type": "rail_long", "stop_name": "Berlin Ostbahnhof" }, "geometry": { "type": "Point", "coordinates": [ 13.434681, 52.510487 ] } },
{ "type": "Feature", "properties": { "index": "r_l_n_896", "FID": "DE300", "route_type": "rail_long", "stop_name": "Berlin Ostbahnhof" }, "geometry": { "type": "Point", "coordinates": [ 13.434681, 52.510487 ] } },
{ "type": "Feature", "properties": { "index": "r_l_n_403", "FID": "DE300", "route_type": "rail_long", "stop_name": "Berlin Ostkreuz" }, "geometry": { "type": "Point", "coordinates": [ 13.469105, 52.503036 ] } },
{ "type": "Feature", "properties": { "index": "r_l_n_11", "FID": "DE300", "route_type": "rail_long", "stop_name": "Berlin Südkreuz" }, "geometry": { "type": "Point", "coordinates": [ 13.365319, 52.475048 ] } },
{ "type": "Feature", "properties": { "index": "r_l_n_1175", "FID": "DE300", "route_type": "rail_long", "stop_name": "Berlin Südkreuz" }, "geometry": { "type": "Point", "coordinates": [ 13.365319, 52.475048 ] } },
{ "type": "Feature", "properties": { "index": "r_l_n_1216", "FID": "DE300", "route_type": "rail_long", "stop_name": "Berlin Südkreuz" }, "geometry": { "type": "Point", "coordinates": [ 13.365319, 52.475048 ] } },
{ "type": "Feature", "properties": { "index": "r_l_n_1315", "FID": "DE300", "route_type": "rail_long", "stop_name": "Berlin Südkreuz" }, "geometry": { "type": "Point", "coordinates": [ 13.365319, 52.475048 ] } },
{ "type": "Feature", "properties": { "index": "r_l_n_1334", "FID": "DE300", "route_type": "rail_long", "stop_name": "Berlin Südkreuz" }, "geometry": { "type": "Point", "coordinates": [ 13.365319, 52.475048 ] } },
{ "type": "Feature", "properties": { "index": "r_l_n_260", "FID": "DE300", "route_type": "rail_long", "stop_name": "Berlin Südkreuz" }, "geometry": { "type": "Point", "coordinates": [ 13.365319, 52.475048 ] } },
{ "type": "Feature", "properties": { "index": "r_l_n_313", "FID": "DE300", "route_type": "rail_long", "stop_name": "Berlin Südkreuz" }, "geometry": { "type": "Point", "coordinates": [ 13.365319, 52.475048 ] } },
{ "type": "Feature", "properties": { "index": "r_l_n_39", "FID": "DE300", "route_type": "rail_long", "stop_name": "Berlin Südkreuz" }, "geometry": { "type": "Point", "coordinates": [ 13.365319, 52.475048 ] } },
{ "type": "Feature", "properties": { "index": "r_l_n_565", "FID": "DE300", "route_type": "rail_long", "stop_name": "Berlin Südkreuz" }, "geometry": { "type": "Point", "coordinates": [ 13.365319, 52.475048 ] } },
{ "type": "Feature", "properties": { "index": "r_l_n_614", "FID": "DE300", "route_type": "rail_long", "stop_name": "Berlin Südkreuz" }, "geometry": { "type": "Point", "coordinates": [ 13.365319, 52.475048 ] } },
{ "type": "Feature", "properties": { "index": "r_l_n_671", "FID": "DE300", "route_type": "rail_long", "stop_name": "Berlin Südkreuz" }, "geometry": { "type": "Point", "coordinates": [ 13.365319, 52.475048 ] } },
{ "type": "Feature", "properties": { "index": "r_l_n_701", "FID": "DE300", "route_type": "rail_long", "stop_name": "Berlin Südkreuz" }, "geometry": { "type": "Point", "coordinates": [ 13.365319, 52.475048 ] } },
{ "type": "Feature", "properties": { "index": "r_l_n_717", "FID": "DE300", "route_type": "rail_long", "stop_name": "Berlin Südkreuz" }, "geometry": { "type": "Point", "coordinates": [ 13.365319, 52.475048 ] } },
{ "type": "Feature", "properties": { "index": "r_l_n_863", "FID": "DE300", "route_type": "rail_long", "stop_name": "Berlin Südkreuz" }, "geometry": { "type": "Point", "coordinates": [ 13.365319, 52.475048 ] } },
{ "type": "Feature", "properties": { "index": "r_l_n_919", "FID": "DE300", "route_type": "rail_long", "stop_name": "Berlin Südkreuz" }, "geometry": { "type": "Point", "coordinates": [ 13.365319, 52.475048 ] } },
{ "type": "Feature", "properties": { "index": "r_l_n_939", "FID": "DE300", "route_type": "rail_long", "stop_name": "Berlin Südkreuz" }, "geometry": { "type": "Point", "coordinates": [ 13.365319, 52.475048 ] } },
{ "type": "Feature", "properties": { "index": "r_l_n_963", "FID": "DE300", "route_type": "rail_long", "stop_name": "Berlin Südkreuz" }, "geometry": { "type": "Point", "coordinates": [ 13.365319, 52.475048 ] } },
{ "type": "Feature", "properties": { "index": "r_l_n_105", "FID": "DE300", "route_type": "rail_long", "stop_name": "Berlin Wannsee" }, "geometry": { "type": "Point", "coordinates": [ 13.179528, 52.42097 ] } },
{ "type": "Feature", "properties": { "index": "r_l_n_1408", "FID": "DE300", "route_type": "rail_long", "stop_name": "Berlin Wannsee" }, "geometry": { "type": "Point", "coordinates": [ 13.179528, 52.42097 ] } },
{ "type": "Feature", "properties": { "index": "r_l_n_693", "FID": "DE300", "route_type": "rail_long", "stop_name": "Berlin Wannsee" }, "geometry": { "type": "Point", "coordinates": [ 13.179528, 52.42097 ] } },
{ "type": "Feature", "properties": { "index": "r_l_n_486", "FID": "DE300", "route_type": "rail_long", "stop_name": "Berlin Zoologischer Garten" }, "geometry": { "type": "Point", "coordinates": [ 13.331992, 52.50728 ] } },
{ "type": "Feature", "properties": { "index": "r_l_n_924", "FID": "DE300", "route_type": "rail_long", "stop_name": "Berlin Zoologischer Garten" }, "geometry": { "type": "Point", "coordinates": [ 13.331992, 52.50728 ] } },
{ "type": "Feature", "properties": { "index": "r_l_n_1176", "FID": "DE300", "route_type": "rail_long", "stop_name": "Berlin-Charlottenburg" }, "geometry": { "type": "Point", "coordinates": [ 13.30233, 52.50421 ] } },
{ "type": "Feature", "properties": { "index": "r_l_n_1326", "FID": "DE300", "route_type": "rail_long", "stop_name": "Berlin-Charlottenburg" }, "geometry": { "type": "Point", "coordinates": [ 13.30233, 52.50421 ] } },
{ "type": "Feature", "properties": { "index": "r_l_n_71", "FID": "DE300", "route_type": "rail_long", "stop_name": "Berlin-Charlottenburg" }, "geometry": { "type": "Point", "coordinates": [ 13.30233, 52.50421 ] } },
{ "type": "Feature", "properties": { "index": "r_l_n_1272", "FID": "DE300", "route_type": "rail_long", "stop_name": "Berlin-Spandau" }, "geometry": { "type": "Point", "coordinates": [ 13.196898, 52.53465 ] } },
{ "type": "Feature", "properties": { "index": "r_l_n_1445", "FID": "DE300", "route_type": "rail_long", "stop_name": "Berlin-Spandau" }, "geometry": { "type": "Point", "coordinates": [ 13.196898, 52.53465 ] } },
{ "type": "Feature", "properties": { "index": "r_l_n_220", "FID": "DE300", "route_type": "rail_long", "stop_name": "Berlin-Spandau" }, "geometry": { "type": "Point", "coordinates": [ 13.196898, 52.53465 ] } },
{ "type": "Feature", "properties": { "index": "r_l_n_266", "FID": "DE300", "route_type": "rail_long", "stop_name": "Berlin-Spandau" }, "geometry": { "type": "Point", "coordinates": [ 13.196898, 52.53465 ] } },
{ "type": "Feature", "properties": { "index": "r_l_n_301", "FID": "DE300", "route_type": "rail_long", "stop_name": "Berlin-Spandau" }, "geometry": { "type": "Point", "coordinates": [ 13.196898, 52.53465 ] } },
{ "type": "Feature", "properties": { "index": "r_l_n_469", "FID": "DE300", "route_type": "rail_long", "stop_name": "Berlin-Spandau" }, "geometry": { "type": "Point", "coordinates": [ 13.196898, 52.53465 ] } },
{ "type": "Feature", "properties": { "index": "r_l_n_49", "FID": "DE300", "route_type": "rail_long", "stop_name": "Berlin-Spandau" }, "geometry": { "type": "Point", "coordinates": [ 13.196898, 52.53465 ] } },
{ "type": "Feature", "properties": { "index": "r_l_n_502", "FID": "DE300", "route_type": "rail_long", "stop_name": "Berlin-Spandau" }, "geometry": { "type": "Point", "coordinates": [ 13.196898, 52.53465 ] } },
{ "type": "Feature", "properties": { "index": "r_l_n_6", "FID": "DE300", "route_type": "rail_long", "stop_name": "Berlin-Spandau" }, "geometry": { "type": "Point", "coordinates": [ 13.196898, 52.53465 ] } },
{ "type": "Feature", "properties": { "index": "r_l_n_629", "FID": "DE300", "route_type": "rail_long", "stop_name": "Berlin-Spandau" }, "geometry": { "type": "Point", "coordinates": [ 13.196898, 52.53465 ] } },
{ "type": "Feature", "properties": { "index": "r_l_n_679", "FID": "DE300", "route_type": "rail_long", "stop_name": "Berlin-Spandau" }, "geometry": { "type": "Point", "coordinates": [ 13.196898, 52.53465 ] } },
{ "type": "Feature", "properties": { "index": "r_l_n_74", "FID": "DE300", "route_type": "rail_long", "stop_name": "Berlin-Spandau" }, "geometry": { "type": "Point", "coordinates": [ 13.196898, 52.53465 ] } },
{ "type": "Feature", "properties": { "index": "r_l_n_770", "FID": "DE300", "route_type": "rail_long", "stop_name": "Berlin-Spandau" }, "geometry": { "type": "Point", "coordinates": [ 13.196898, 52.53465 ] } },
{ "type": "Feature", "properties": { "index": "r_l_n_773", "FID": "DE300", "route_type": "rail_long", "stop_name": "Berlin-Spandau" }, "geometry": { "type": "Point", "coordinates": [ 13.196898, 52.53465 ] } },
{ "type": "Feature", "properties": { "index": "r_l_n_908", "FID": "DE300", "route_type": "rail_long", "stop_name": "Berlin-Spandau" }, "geometry": { "type": "Point", "coordinates": [ 13.196898, 52.53465 ] } },
{ "type": "Feature", "properties": { "index": "r_l_n_757", "FID": "DE405", "route_type": "rail_long", "stop_name": "Bernau(b Berlin)" }, "geometry": { "type": "Point", "coordinates": [ 13.592641, 52.675568 ] } },
{ "type": "Feature", "properties": { "index": "r_l_n_80", "FID": "DE405", "route_type": "rail_long", "stop_name": "Bernau(b Berlin)" }, "geometry": { "type": "Point", "coordinates": [ 13.592641, 52.675568 ] } },
{ "type": "Feature", "properties": { "index": "r_l_n_155", "FID": "DEA41", "route_type": "rail_long", "stop_name": "Bielefeld Hbf" }, "geometry": { "type": "Point", "coordinates": [ 8.532722, 52.029263 ] } },
{ "type": "Feature", "properties": { "index": "r_l_n_368", "FID": "DEA41", "route_type": "rail_long", "stop_name": "Bielefeld Hbf" }, "geometry": { "type": "Point", "coordinates": [ 8.532722, 52.029263 ] } },
{ "type": "Feature", "properties": { "index": "r_l_n_1038", "FID": "DEB3J", "route_type": "rail_long", "stop_name": "Bingen(Rhein) Hbf" }, "geometry": { "type": "Point", "coordinates": [ 7.884263, 49.968727 ] } },
{ "type": "Feature", "properties": { "index": "r_l_n_149", "FID": "DEB3J", "route_type": "rail_long", "stop_name": "Bingen(Rhein) Hbf" }, "geometry": { "type": "Point", "coordinates": [ 7.884263, 49.968727 ] } },
{ "type": "Feature", "properties": { "index": "r_l_n_985", "FID": "DEB3J", "route_type": "rail_long", "stop_name": "Bingen(Rhein) Hbf" }, "geometry": { "type": "Point", "coordinates": [ 7.884263, 49.968727 ] } },
{ "type": "Feature", "properties": { "index": "r_l_n_1081", "FID": "DEE05", "route_type": "rail_long", "stop_name": "Bitterfeld" }, "geometry": { "type": "Point", "coordinates": [ 12.31685, 51.62286 ] } },
{ "type": "Feature", "properties": { "index": "r_l_n_1188", "FID": "DEE05", "route_type": "rail_long", "stop_name": "Bitterfeld" }, "geometry": { "type": "Point", "coordinates": [ 12.31685, 51.62286 ] } },
{ "type": "Feature", "properties": { "index": "r_l_n_1367", "FID": "DEE05", "route_type": "rail_long", "stop_name": "Bitterfeld" }, "geometry": { "type": "Point", "coordinates": [ 12.31685, 51.62286 ] } },
{ "type": "Feature", "properties": { "index": "r_l_n_367", "FID": "DEE05", "route_type": "rail_long", "stop_name": "Bitterfeld" }, "geometry": { "type": "Point", "coordinates": [ 12.31685, 51.62286 ] } },
{ "type": "Feature", "properties": { "index": "r_l_n_387", "FID": "DEE05", "route_type": "rail_long", "stop_name": "Bitterfeld" }, "geometry": { "type": "Point", "coordinates": [ 12.31685, 51.62286 ] } },
{ "type": "Feature", "properties": { "index": "r_l_n_519", "FID": "DEE05", "route_type": "rail_long", "stop_name": "Bitterfeld" }, "geometry": { "type": "Point", "coordinates": [ 12.31685, 51.62286 ] } },
{ "type": "Feature", "properties": { "index": "r_l_n_1025", "FID": "DEA51", "route_type": "rail_long", "stop_name": "Bochum Hbf" }, "geometry": { "type": "Point", "coordinates": [ 7.223275, 51.478607 ] } },
{ "type": "Feature", "properties": { "index": "r_l_n_1214", "FID": "DEA51", "route_type": "rail_long", "stop_name": "Bochum Hbf" }, "geometry": { "type": "Point", "coordinates": [ 7.223275, 51.478607 ] } },
{ "type": "Feature", "properties": { "index": "r_l_n_1372", "FID": "DEA51", "route_type": "rail_long", "stop_name": "Bochum Hbf" }, "geometry": { "type": "Point", "coordinates": [ 7.223275, 51.478607 ] } },
{ "type": "Feature", "properties": { "index": "r_l_n_804", "FID": "DEA51", "route_type": "rail_long", "stop_name": "Bochum Hbf" }, "geometry": { "type": "Point", "coordinates": [ 7.223275, 51.478607 ] } },
{ "type": "Feature", "properties": { "index": "r_l_n_828", "FID": "DEA51", "route_type": "rail_long", "stop_name": "Bochum Hbf" }, "geometry": { "type": "Point", "coordinates": [ 7.223275, 51.478607 ] } },
{ "type": "Feature", "properties": { "index": "r_l_n_130", "FID": "DE112", "route_type": "rail_long", "stop_name": "Bondorf(b Herrenberg)" }, "geometry": { "type": "Point", "coordinates": [ 8.827662, 48.523552 ] } },
{ "type": "Feature", "properties": { "index": "r_l_n_203", "FID": "DE112", "route_type": "rail_long", "stop_name": "Bondorf(b Herrenberg)" }, "geometry": { "type": "Point", "coordinates": [ 8.827662, 48.523552 ] } },
{ "type": "Feature", "properties": { "index": "r_l_n_587", "FID": "DEA22", "route_type": "rail_long", "stop_name": "Bonn Hbf" }, "geometry": { "type": "Point", "coordinates": [ 7.097136, 50.73201 ] } },
{ "type": "Feature", "properties": { "index": "r_l_n_592", "FID": "DEA22", "route_type": "rail_long", "stop_name": "Bonn Hbf" }, "geometry": { "type": "Point", "coordinates": [ 7.097136, 50.73201 ] } },
{ "type": "Feature", "properties": { "index": "r_l_n_1080", "FID": "DEA22", "route_type": "rail_long", "stop_name": "Bonn-Bad Godesberg" }, "geometry": { "type": "Point", "coordinates": [ 7.159555, 50.683926 ] } },
{ "type": "Feature", "properties": { "index": "r_l_n_229", "FID": "DEA22", "route_type": "rail_long", "stop_name": "Bonn-Bad Godesberg" }, "geometry": { "type": "Point", "coordinates": [ 7.159555, 50.683926 ] } },
{ "type": "Feature", "properties": { "index": "r_l_n_1039", "FID": "DEB1D", "route_type": "rail_long", "stop_name": "Boppard Hbf" }, "geometry": { "type": "Point", "coordinates": [ 7.586102, 50.231415 ] } },
{ "type": "Feature", "properties": { "index": "r_l_n_1389", "FID": "DE401", "route_type": "rail_long", "stop_name": "Brandenburg Hbf" }, "geometry": { "type": "Point", "coordinates": [ 12.566138, 52.400555 ] } },
{ "type": "Feature", "properties": { "index": "r_l_n_378", "FID": "DE401", "route_type": "rail_long", "stop_name": "Brandenburg Hbf" }, "geometry": { "type": "Point", "coordinates": [ 12.566138, 52.400555 ] } },
{ "type": "Feature", "properties": { "index": "r_l_n_1107", "FID": "DE911", "route_type": "rail_long", "stop_name": "Braunschweig Hbf" }, "geometry": { "type": "Point", "coordinates": [ 10.540295, 52.252216 ] } },
{ "type": "Feature", "properties": { "index": "r_l_n_153", "FID": "DE911", "route_type": "rail_long", "stop_name": "Braunschweig Hbf" }, "geometry": { "type": "Point", "coordinates": [ 10.540295, 52.252216 ] } },
{ "type": "Feature", "properties": { "index": "r_l_n_1092", "FID": "DE501", "route_type": "rail_long", "stop_name": "Bremen Hbf" }, "geometry": { "type": "Point", "coordinates": [ 8.813834, 53.08348 ] } },
{ "type": "Feature", "properties": { "index": "r_l_n_1171", "FID": "DE501", "route_type": "rail_long", "stop_name": "Bremen Hbf" }, "geometry": { "type": "Point", "coordinates": [ 8.813834, 53.08348 ] } },
{ "type": "Feature", "properties": { "index": "r_l_n_1324", "FID": "DE501", "route_type": "rail_long", "stop_name": "Bremen Hbf" }, "geometry": { "type": "Point", "coordinates": [ 8.813834, 53.08348 ] } },
{ "type": "Feature", "properties": { "index": "r_l_n_163", "FID": "DE501", "route_type": "rail_long", "stop_name": "Bremen Hbf" }, "geometry": { "type": "Point", "coordinates": [ 8.813834, 53.08348 ] } },
{ "type": "Feature", "properties": { "index": "r_l_n_723", "FID": "DE501", "route_type": "rail_long", "stop_name": "Bremen Hbf" }, "geometry": { "type": "Point", "coordinates": [ 8.813834, 53.08348 ] } },
{ "type": "Feature", "properties": { "index": "r_l_n_806", "FID": "DE501", "route_type": "rail_long", "stop_name": "Bremen Hbf" }, "geometry": { "type": "Point", "coordinates": [ 8.813834, 53.08348 ] } },
{ "type": "Feature", "properties": { "index": "r_l_n_916", "FID": "DE501", "route_type": "rail_long", "stop_name": "Bremen Hbf" }, "geometry": { "type": "Point", "coordinates": [ 8.813834, 53.08348 ] } },
{ "type": "Feature", "properties": { "index": "r_l_n_1075", "FID": "DE123", "route_type": "rail_long", "stop_name": "Bruchsal" }, "geometry": { "type": "Point", "coordinates": [ 8.589649, 49.124622 ] } },
{ "type": "Feature", "properties": { "index": "r_l_n_567", "FID": "DE123", "route_type": "rail_long", "stop_name": "Bruchsal" }, "geometry": { "type": "Point", "coordinates": [ 8.589649, 49.124622 ] } },
{ "type": "Feature", "properties": { "index": "r_l_n_66", "FID": "DE123", "route_type": "rail_long", "stop_name": "Bruchsal" }, "geometry": { "type": "Point", "coordinates": [ 8.589649, 49.124622 ] } },
{ "type": "Feature", "properties": { "index": "r_l_n_78", "FID": "DE27B", "route_type": "rail_long", "stop_name": "Buchloe" }, "geometry": { "type": "Point", "coordinates": [ 10.716217, 48.033722 ] } },
{ "type": "Feature", "properties": { "index": "r_l_n_1033", "FID": "DE112", "route_type": "rail_long", "stop_name": "Böblingen" }, "geometry": { "type": "Point", "coordinates": [ 9.004128, 48.68776 ] } },
{ "type": "Feature", "properties": { "index": "r_l_n_601", "FID": "DE112", "route_type": "rail_long", "stop_name": "Böblingen" }, "geometry": { "type": "Point", "coordinates": [ 9.004128, 48.68776 ] } },
{ "type": "Feature", "properties": { "index": "r_l_n_132", "FID": "DEF06", "route_type": "rail_long", "stop_name": "Büchen" }, "geometry": { "type": "Point", "coordinates": [ 10.623298, 53.47497 ] } },
{ "type": "Feature", "properties": { "index": "r_l_n_200", "FID": "DEF06", "route_type": "rail_long", "stop_name": "Büchen" }, "geometry": { "type": "Point", "coordinates": [ 10.623298, 53.47497 ] } },
{ "type": "Feature", "properties": { "index": "r_l_n_274", "FID": "DEA43", "route_type": "rail_long", "stop_name": "Bünde(Westf)" }, "geometry": { "type": "Point", "coordinates": [ 8.573876, 52.202076 ] } },
{ "type": "Feature", "properties": { "index": "r_l_n_830", "FID": "DEA43", "route_type": "rail_long", "stop_name": "Bünde(Westf)" }, "geometry": { "type": "Point", "coordinates": [ 8.573876, 52.202076 ] } },
{ "type": "Feature", "properties": { "index": "r_l_n_186", "FID": "DE80K", "route_type": "rail_long", "stop_name": "Bützow" }, "geometry": { "type": "Point", "coordinates": [ 11.998194, 53.837112 ] } },
{ "type": "Feature", "properties": { "index": "r_l_n_366", "FID": "DE80K", "route_type": "rail_long", "stop_name": "Bützow" }, "geometry": { "type": "Point", "coordinates": [ 11.998194, 53.837112 ] } },
{ "type": "Feature", "properties": { "index": "r_l_n_491", "FID": "DE931", "route_type": "rail_long", "stop_name": "Celle" }, "geometry": { "type": "Point", "coordinates": [ 10.062634, 52.620964 ] } },
{ "type": "Feature", "properties": { "index": "r_l_n_940", "FID": "DE931", "route_type": "rail_long", "stop_name": "Celle" }, "geometry": { "type": "Point", "coordinates": [ 10.062634, 52.620964 ] } },
{ "type": "Feature", "properties": { "index": "r_l_n_986", "FID": "DE931", "route_type": "rail_long", "stop_name": "Celle" }, "geometry": { "type": "Point", "coordinates": [ 10.062634, 52.620964 ] } },
{ "type": "Feature", "properties": { "index": "r_l_n_194", "FID": "DE243", "route_type": "rail_long", "stop_name": "Coburg" }, "geometry": { "type": "Point", "coordinates": [ 10.957328, 50.262928 ] } },
{ "type": "Feature", "properties": { "index": "r_l_n_374", "FID": "DE243", "route_type": "rail_long", "stop_name": "Coburg" }, "geometry": { "type": "Point", "coordinates": [ 10.957328, 50.262928 ] } },
{ "type": "Feature", "properties": { "index": "r_l_n_1045", "FID": "DE402", "route_type": "rail_long", "stop_name": "Cottbus Hbf" }, "geometry": { "type": "Point", "coordinates": [ 14.324162, 51.750957 ] } },
{ "type": "Feature", "properties": { "index": "r_l_n_1245", "FID": "DE402", "route_type": "rail_long", "stop_name": "Cottbus Hbf" }, "geometry": { "type": "Point", "coordinates": [ 14.324162, 51.750957 ] } },
{ "type": "Feature", "properties": { "index": "r_l_n_122", "FID": "DE11A", "route_type": "rail_long", "stop_name": "Crailsheim" }, "geometry": { "type": "Point", "coordinates": [ 10.064326, 49.13787 ] } },
{ "type": "Feature", "properties": { "index": "r_l_n_1287", "FID": "DE11A", "route_type": "rail_long", "stop_name": "Crailsheim" }, "geometry": { "type": "Point", "coordinates": [ 10.064326, 49.13787 ] } },
{ "type": "Feature", "properties": { "index": "r_l_n_189", "FID": "DE711", "route_type": "rail_long", "stop_name": "Darmstadt Hbf" }, "geometry": { "type": "Point", "coordinates": [ 8.629636, 49.8725 ] } },
{ "type": "Feature", "properties": { "index": "r_l_n_534", "FID": "DE711", "route_type": "rail_long", "stop_name": "Darmstadt Hbf" }, "geometry": { "type": "Point", "coordinates": [ 8.629636, 49.8725 ] } },
{ "type": "Feature", "properties": { "index": "r_l_n_713", "FID": "DE711", "route_type": "rail_long", "stop_name": "Darmstadt Hbf" }, "geometry": { "type": "Point", "coordinates": [ 8.629636, 49.8725 ] } },
{ "type": "Feature", "properties": { "index": "r_l_n_883", "FID": "DE711", "route_type": "rail_long", "stop_name": "Darmstadt Hbf" }, "geometry": { "type": "Point", "coordinates": [ 8.629636, 49.8725 ] } },
{ "type": "Feature", "properties": { "index": "r_l_n_265", "FID": "DE941", "route_type": "rail_long", "stop_name": "Delmenhorst" }, "geometry": { "type": "Point", "coordinates": [ 8.629758, 53.05279 ] } },
{ "type": "Feature", "properties": { "index": "r_l_n_581", "FID": "DE941", "route_type": "rail_long", "stop_name": "Delmenhorst" }, "geometry": { "type": "Point", "coordinates": [ 8.629758, 53.05279 ] } },
{ "type": "Feature", "properties": { "index": "r_l_n_125", "FID": "DEE01", "route_type": "rail_long", "stop_name": "Dessau Hbf" }, "geometry": { "type": "Point", "coordinates": [ 12.234945, 51.839867 ] } },
{ "type": "Feature", "properties": { "index": "r_l_n_686", "FID": "DEE01", "route_type": "rail_long", "stop_name": "Dessau Hbf" }, "geometry": { "type": "Point", "coordinates": [ 12.234945, 51.839867 ] } },
{ "type": "Feature", "properties": { "index": "r_l_n_928", "FID": "DEE01", "route_type": "rail_long", "stop_name": "Dessau Hbf" }, "geometry": { "type": "Point", "coordinates": [ 12.234945, 51.839867 ] } },
{ "type": "Feature", "properties": { "index": "r_l_n_1122", "FID": "DE922", "route_type": "rail_long", "stop_name": "Diepholz" }, "geometry": { "type": "Point", "coordinates": [ 8.380334, 52.60477 ] } },
{ "type": "Feature", "properties": { "index": "r_l_n_1226", "FID": "DE922", "route_type": "rail_long", "stop_name": "Diepholz" }, "geometry": { "type": "Point", "coordinates": [ 8.380334, 52.60477 ] } },
{ "type": "Feature", "properties": { "index": "r_l_n_478", "FID": "DE407", "route_type": "rail_long", "stop_name": "Doberlug-Kirchhain" }, "geometry": { "type": "Point", "coordinates": [ 13.564241, 51.620575 ] } },
{ "type": "Feature", "properties": { "index": "r_l_n_1346", "FID": "DE136", "route_type": "rail_long", "stop_name": "Donaueschingen" }, "geometry": { "type": "Point", "coordinates": [ 8.498919, 47.947784 ] } },
{ "type": "Feature", "properties": { "index": "r_l_n_72", "FID": "DE136", "route_type": "rail_long", "stop_name": "Donaueschingen" }, "geometry": { "type": "Point", "coordinates": [ 8.498919, 47.947784 ] } },
{ "type": "Feature", "properties": { "index": "r_l_n_1406", "FID": "DE27D", "route_type": "rail_long", "stop_name": "Donauwörth" }, "geometry": { "type": "Point", "coordinates": [ 10.771443, 48.714027 ] } },
{ "type": "Feature", "properties": { "index": "r_l_n_615", "FID": "DE27D", "route_type": "rail_long", "stop_name": "Donauwörth" }, "geometry": { "type": "Point", "coordinates": [ 10.771443, 48.714027 ] } },
{ "type": "Feature", "properties": { "index": "r_l_n_1152", "FID": "DEA52", "route_type": "rail_long", "stop_name": "Dortmund Hbf" }, "geometry": { "type": "Point", "coordinates": [ 7.45929, 51.517895 ] } },
{ "type": "Feature", "properties": { "index": "r_l_n_1215", "FID": "DEA52", "route_type": "rail_long", "stop_name": "Dortmund Hbf" }, "geometry": { "type": "Point", "coordinates": [ 7.45929, 51.517895 ] } },
{ "type": "Feature", "properties": { "index": "r_l_n_1362", "FID": "DEA52", "route_type": "rail_long", "stop_name": "Dortmund Hbf" }, "geometry": { "type": "Point", "coordinates": [ 7.45929, 51.517895 ] } },
{ "type": "Feature", "properties": { "index": "r_l_n_202", "FID": "DEA52", "route_type": "rail_long", "stop_name": "Dortmund Hbf" }, "geometry": { "type": "Point", "coordinates": [ 7.45929, 51.517895 ] } },
{ "type": "Feature", "properties": { "index": "r_l_n_223", "FID": "DEA52", "route_type": "rail_long", "stop_name": "Dortmund Hbf" }, "geometry": { "type": "Point", "coordinates": [ 7.45929, 51.517895 ] } },
{ "type": "Feature", "properties": { "index": "r_l_n_952", "FID": "DEA52", "route_type": "rail_long", "stop_name": "Dortmund Hbf" }, "geometry": { "type": "Point", "coordinates": [ 7.45929, 51.517895 ] } },
{ "type": "Feature", "properties": { "index": "r_l_n_953", "FID": "DEA52", "route_type": "rail_long", "stop_name": "Dortmund Hbf" }, "geometry": { "type": "Point", "coordinates": [ 7.45929, 51.517895 ] } },
{ "type": "Feature", "properties": { "index": "r_l_n_1115", "FID": "DED21", "route_type": "rail_long", "stop_name": "Dresden Hbf" }, "geometry": { "type": "Point", "coordinates": [ 13.732035, 51.04056 ] } },
{ "type": "Feature", "properties": { "index": "r_l_n_1377", "FID": "DED21", "route_type": "rail_long", "stop_name": "Dresden Hbf" }, "geometry": { "type": "Point", "coordinates": [ 13.732035, 51.04056 ] } },
{ "type": "Feature", "properties": { "index": "r_l_n_40", "FID": "DED21", "route_type": "rail_long", "stop_name": "Dresden Hbf" }, "geometry": { "type": "Point", "coordinates": [ 13.732035, 51.04056 ] } },
{ "type": "Feature", "properties": { "index": "r_l_n_363", "FID": "DED21", "route_type": "rail_long", "stop_name": "Dresden-Neustadt" }, "geometry": { "type": "Point", "coordinates": [ 13.740701, 51.0659 ] } },
{ "type": "Feature", "properties": { "index": "r_l_n_382", "FID": "DED21", "route_type": "rail_long", "stop_name": "Dresden-Neustadt" }, "geometry": { "type": "Point", "coordinates": [ 13.740701, 51.0659 ] } },
{ "type": "Feature", "properties": { "index": "r_l_n_475", "FID": "DED21", "route_type": "rail_long", "stop_name": "Dresden-Neustadt" }, "geometry": { "type": "Point", "coordinates": [ 13.740701, 51.0659 ] } },
{ "type": "Feature", "properties": { "index": "r_l_n_821", "FID": "DED21", "route_type": "rail_long", "stop_name": "Dresden-Neustadt" }, "geometry": { "type": "Point", "coordinates": [ 13.740701, 51.0659 ] } },
{ "type": "Feature", "properties": { "index": "r_l_n_1052", "FID": "DEA12", "route_type": "rail_long", "stop_name": "Duisburg Hbf" }, "geometry": { "type": "Point", "coordinates": [ 6.775903, 51.429787 ] } },
{ "type": "Feature", "properties": { "index": "r_l_n_1195", "FID": "DEA12", "route_type": "rail_long", "stop_name": "Duisburg Hbf" }, "geometry": { "type": "Point", "coordinates": [ 6.775903, 51.429787 ] } },
{ "type": "Feature", "properties": { "index": "r_l_n_206", "FID": "DEA12", "route_type": "rail_long", "stop_name": "Duisburg Hbf" }, "geometry": { "type": "Point", "coordinates": [ 6.775903, 51.429787 ] } },
{ "type": "Feature", "properties": { "index": "r_l_n_415", "FID": "DEA12", "route_type": "rail_long", "stop_name": "Duisburg Hbf" }, "geometry": { "type": "Point", "coordinates": [ 6.775903, 51.429787 ] } },
{ "type": "Feature", "properties": { "index": "r_l_n_664", "FID": "DEA12", "route_type": "rail_long", "stop_name": "Duisburg Hbf" }, "geometry": { "type": "Point", "coordinates": [ 6.775903, 51.429787 ] } },
{ "type": "Feature", "properties": { "index": "r_l_n_965", "FID": "DEA12", "route_type": "rail_long", "stop_name": "Duisburg Hbf" }, "geometry": { "type": "Point", "coordinates": [ 6.775903, 51.429787 ] } },
{ "type": "Feature", "properties": { "index": "r_l_n_969", "FID": "DEA12", "route_type": "rail_long", "stop_name": "Duisburg Hbf" }, "geometry": { "type": "Point", "coordinates": [ 6.775903, 51.429787 ] } },
{ "type": "Feature", "properties": { "index": "r_l_n_992", "FID": "DEA12", "route_type": "rail_long", "stop_name": "Duisburg Hbf" }, "geometry": { "type": "Point", "coordinates": [ 6.775903, 51.429787 ] } },
{ "type": "Feature", "properties": { "index": "r_l_n_365", "FID": "DEA26", "route_type": "rail_long", "stop_name": "Düren" }, "geometry": { "type": "Point", "coordinates": [ 6.482451, 50.809517 ] } },
{ "type": "Feature", "properties": { "index": "r_l_n_497", "FID": "DEA11", "route_type": "rail_long", "stop_name": "Düsseldorf Flughafen" }, "geometry": { "type": "Point", "coordinates": [ 6.786836, 51.292007 ] } },
{ "type": "Feature", "properties": { "index": "r_l_n_865", "FID": "DEA11", "route_type": "rail_long", "stop_name": "Düsseldorf Flughafen" }, "geometry": { "type": "Point", "coordinates": [ 6.786836, 51.292007 ] } },
{ "type": "Feature", "properties": { "index": "r_l_n_1187", "FID": "DEA11", "route_type": "rail_long", "stop_name": "Düsseldorf Hbf" }, "geometry": { "type": "Point", "coordinates": [ 6.794319, 51.219963 ] } },
{ "type": "Feature", "properties": { "index": "r_l_n_124", "FID": "DEA11", "route_type": "rail_long", "stop_name": "Düsseldorf Hbf" }, "geometry": { "type": "Point", "coordinates": [ 6.794319, 51.219963 ] } },
{ "type": "Feature", "properties": { "index": "r_l_n_1267", "FID": "DEA11", "route_type": "rail_long", "stop_name": "Düsseldorf Hbf" }, "geometry": { "type": "Point", "coordinates": [ 6.794319, 51.219963 ] } },
{ "type": "Feature", "properties": { "index": "r_l_n_1401", "FID": "DEA11", "route_type": "rail_long", "stop_name": "Düsseldorf Hbf" }, "geometry": { "type": "Point", "coordinates": [ 6.794319, 51.219963 ] } },
{ "type": "Feature", "properties": { "index": "r_l_n_285", "FID": "DEA11", "route_type": "rail_long", "stop_name": "Düsseldorf Hbf" }, "geometry": { "type": "Point", "coordinates": [ 6.794319, 51.219963 ] } },
{ "type": "Feature", "properties": { "index": "r_l_n_638", "FID": "DEA11", "route_type": "rail_long", "stop_name": "Düsseldorf Hbf" }, "geometry": { "type": "Point", "coordinates": [ 6.794319, 51.219963 ] } },
{ "type": "Feature", "properties": { "index": "r_l_n_727", "FID": "DEA11", "route_type": "rail_long", "stop_name": "Düsseldorf Hbf" }, "geometry": { "type": "Point", "coordinates": [ 6.794319, 51.219963 ] } },
{ "type": "Feature", "properties": { "index": "r_l_n_731", "FID": "DEA11", "route_type": "rail_long", "stop_name": "Düsseldorf Hbf" }, "geometry": { "type": "Point", "coordinates": [ 6.794319, 51.219963 ] } },
{ "type": "Feature", "properties": { "index": "r_l_n_1228", "FID": "DE405", "route_type": "rail_long", "stop_name": "Eberswalde Hbf" }, "geometry": { "type": "Point", "coordinates": [ 13.797062, 52.834023 ] } },
{ "type": "Feature", "properties": { "index": "r_l_n_797", "FID": "DE405", "route_type": "rail_long", "stop_name": "Eberswalde Hbf" }, "geometry": { "type": "Point", "coordinates": [ 13.797062, 52.834023 ] } },
{ "type": "Feature", "properties": { "index": "r_l_n_1273", "FID": "DEG0N", "route_type": "rail_long", "stop_name": "Eisenach" }, "geometry": { "type": "Point", "coordinates": [ 10.331986, 50.97692 ] } },
{ "type": "Feature", "properties": { "index": "r_l_n_1443", "FID": "DEG0N", "route_type": "rail_long", "stop_name": "Eisenach" }, "geometry": { "type": "Point", "coordinates": [ 10.331986, 50.97692 ] } },
{ "type": "Feature", "properties": { "index": "r_l_n_429", "FID": "DEG0N", "route_type": "rail_long", "stop_name": "Eisenach" }, "geometry": { "type": "Point", "coordinates": [ 10.331986, 50.97692 ] } },
{ "type": "Feature", "properties": { "index": "r_l_n_775", "FID": "DE11D", "route_type": "rail_long", "stop_name": "Ellwangen" }, "geometry": { "type": "Point", "coordinates": [ 10.129681, 48.964123 ] } },
{ "type": "Feature", "properties": { "index": "r_l_n_643", "FID": "DE407", "route_type": "rail_long", "stop_name": "Elsterwerda" }, "geometry": { "type": "Point", "coordinates": [ 13.516428, 51.45968 ] } },
{ "type": "Feature", "properties": { "index": "r_l_n_705", "FID": "DE407", "route_type": "rail_long", "stop_name": "Elsterwerda" }, "geometry": { "type": "Point", "coordinates": [ 13.516428, 51.45968 ] } },
{ "type": "Feature", "properties": { "index": "r_l_n_1248", "FID": "DE925", "route_type": "rail_long", "stop_name": "Elze(Han)" }, "geometry": { "type": "Point", "coordinates": [ 9.746894, 52.120148 ] } },
{ "type": "Feature", "properties": { "index": "r_l_n_545", "FID": "DE925", "route_type": "rail_long", "stop_name": "Elze(Han)" }, "geometry": { "type": "Point", "coordinates": [ 9.746894, 52.120148 ] } },
{ "type": "Feature", "properties": { "index": "r_l_n_737", "FID": "DE942", "route_type": "rail_long", "stop_name": "Emden Außenhafen" }, "geometry": { "type": "Point", "coordinates": [ 7.186179, 53.344467 ] } },
{ "type": "Feature", "properties": { "index": "r_l_n_1314", "FID": "DE942", "route_type": "rail_long", "stop_name": "Emden Hbf" }, "geometry": { "type": "Point", "coordinates": [ 7.195176, 53.369038 ] } },
{ "type": "Feature", "properties": { "index": "r_l_n_576", "FID": "DE942", "route_type": "rail_long", "stop_name": "Emden Hbf" }, "geometry": { "type": "Point", "coordinates": [ 7.195176, 53.369038 ] } },
{ "type": "Feature", "properties": { "index": "r_l_n_630", "FID": "DE942", "route_type": "rail_long", "stop_name": "Emden Hbf" }, "geometry": { "type": "Point", "coordinates": [ 7.195176, 53.369038 ] } },
{ "type": "Feature", "properties": { "index": "r_l_n_764", "FID": "DE942", "route_type": "rail_long", "stop_name": "Emden Hbf" }, "geometry": { "type": "Point", "coordinates": [ 7.195176, 53.369038 ] } },
{ "type": "Feature", "properties": { "index": "r_l_n_383", "FID": "DE138", "route_type": "rail_long", "stop_name": "Engen" }, "geometry": { "type": "Point", "coordinates": [ 8.772786, 47.856346 ] } },
{ "type": "Feature", "properties": { "index": "r_l_n_468", "FID": "DE138", "route_type": "rail_long", "stop_name": "Engen" }, "geometry": { "type": "Point", "coordinates": [ 8.772786, 47.856346 ] } },
{ "type": "Feature", "properties": { "index": "r_l_n_1131", "FID": "DEG01", "route_type": "rail_long", "stop_name": "Erfurt Hbf" }, "geometry": { "type": "Point", "coordinates": [ 11.038499, 50.97255 ] } },
{ "type": "Feature", "properties": { "index": "r_l_n_1198", "FID": "DEG01", "route_type": "rail_long", "stop_name": "Erfurt Hbf" }, "geometry": { "type": "Point", "coordinates": [ 11.038499, 50.97255 ] } },
{ "type": "Feature", "properties": { "index": "r_l_n_207", "FID": "DEG01", "route_type": "rail_long", "stop_name": "Erfurt Hbf" }, "geometry": { "type": "Point", "coordinates": [ 11.038499, 50.97255 ] } },
{ "type": "Feature", "properties": { "index": "r_l_n_209", "FID": "DEG01", "route_type": "rail_long", "stop_name": "Erfurt Hbf" }, "geometry": { "type": "Point", "coordinates": [ 11.038499, 50.97255 ] } },
{ "type": "Feature", "properties": { "index": "r_l_n_633", "FID": "DEG01", "route_type": "rail_long", "stop_name": "Erfurt Hbf" }, "geometry": { "type": "Point", "coordinates": [ 11.038499, 50.97255 ] } },
{ "type": "Feature", "properties": { "index": "r_l_n_756", "FID": "DEG01", "route_type": "rail_long", "stop_name": "Erfurt Hbf" }, "geometry": { "type": "Point", "coordinates": [ 11.038499, 50.97255 ] } },
{ "type": "Feature", "properties": { "index": "r_l_n_1036", "FID": "DE142", "route_type": "rail_long", "stop_name": "Ergenzingen" }, "geometry": { "type": "Point", "coordinates": [ 8.809857, 48.489532 ] } },
{ "type": "Feature", "properties": { "index": "r_l_n_1174", "FID": "DE142", "route_type": "rail_long", "stop_name": "Ergenzingen" }, "geometry": { "type": "Point", "coordinates": [ 8.809857, 48.489532 ] } },
{ "type": "Feature", "properties": { "index": "r_l_n_127", "FID": "DE252", "route_type": "rail_long", "stop_name": "Erlangen" }, "geometry": { "type": "Point", "coordinates": [ 11.001638, 49.59583 ] } },
{ "type": "Feature", "properties": { "index": "r_l_n_176", "FID": "DE252", "route_type": "rail_long", "stop_name": "Erlangen" }, "geometry": { "type": "Point", "coordinates": [ 11.001638, 49.59583 ] } },
{ "type": "Feature", "properties": { "index": "r_l_n_1041", "FID": "DEA13", "route_type": "rail_long", "stop_name": "Essen Hbf" }, "geometry": { "type": "Point", "coordinates": [ 7.014793, 51.451355 ] } },
{ "type": "Feature", "properties": { "index": "r_l_n_509", "FID": "DEA13", "route_type": "rail_long", "stop_name": "Essen Hbf" }, "geometry": { "type": "Point", "coordinates": [ 7.014793, 51.451355 ] } },
{ "type": "Feature", "properties": { "index": "r_l_n_53", "FID": "DEA13", "route_type": "rail_long", "stop_name": "Essen Hbf" }, "geometry": { "type": "Point", "coordinates": [ 7.014793, 51.451355 ] } },
{ "type": "Feature", "properties": { "index": "r_l_n_681", "FID": "DEA13", "route_type": "rail_long", "stop_name": "Essen Hbf" }, "geometry": { "type": "Point", "coordinates": [ 7.014793, 51.451355 ] } },
{ "type": "Feature", "properties": { "index": "r_l_n_973", "FID": "DEA13", "route_type": "rail_long", "stop_name": "Essen Hbf" }, "geometry": { "type": "Point", "coordinates": [ 7.014793, 51.451355 ] } },
{ "type": "Feature", "properties": { "index": "r_l_n_589", "FID": "DE12C", "route_type": "rail_long", "stop_name": "Eutingen im Gäu" }, "geometry": { "type": "Point", "coordinates": [ 8.782236, 48.479954 ] } },
{ "type": "Feature", "properties": { "index": "r_l_n_943", "FID": "DE12C", "route_type": "rail_long", "stop_name": "Eutingen im Gäu" }, "geometry": { "type": "Point", "coordinates": [ 8.782236, 48.479954 ] } },
{ "type": "Feature", "properties": { "index": "r_l_n_935", "FID": "DE27E", "route_type": "rail_long", "stop_name": "Fischen" }, "geometry": { "type": "Point", "coordinates": [ 10.271717, 47.456593 ] } },
{ "type": "Feature", "properties": { "index": "r_l_n_803", "FID": "DEF01", "route_type": "rail_long", "stop_name": "Flensburg" }, "geometry": { "type": "Point", "coordinates": [ 9.436526, 54.77404 ] } },
{ "type": "Feature", "properties": { "index": "r_l_n_922", "FID": "DEF01", "route_type": "rail_long", "stop_name": "Flensburg" }, "geometry": { "type": "Point", "coordinates": [ 9.436526, 54.77404 ] } },
{ "type": "Feature", "properties": { "index": "r_l_n_109", "FID": "DEF0C", "route_type": "rail_long", "stop_name": "Flensburg(Gr)" }, "geometry": { "type": "Point", "coordinates": [ 9.36324, 54.814842 ] } },
{ "type": "Feature", "properties": { "index": "r_l_n_1280", "FID": "DEC01", "route_type": "rail_long", "stop_name": "Forbach(fr)" }, "geometry": { "type": "Point", "coordinates": [ 6.944314, 49.21409 ] } },
{ "type": "Feature", "properties": { "index": "r_l_n_1021", "FID": "DE712", "route_type": "rail_long", "stop_name": "Frankfurt(M) Flughafen Fernbf" }, "geometry": { "type": "Point", "coordinates": [ 8.570185, 50.053165 ] } },
{ "type": "Feature", "properties": { "index": "r_l_n_1347", "FID": "DE712", "route_type": "rail_long", "stop_name": "Frankfurt(M) Flughafen Fernbf" }, "geometry": { "type": "Point", "coordinates": [ 8.570185, 50.053165 ] } },
{ "type": "Feature", "properties": { "index": "r_l_n_807", "FID": "DE712", "route_type": "rail_long", "stop_name": "Frankfurt(M) Flughafen Fernbf" }, "geometry": { "type": "Point", "coordinates": [ 8.570185, 50.053165 ] } },
{ "type": "Feature", "properties": { "index": "r_l_n_88", "FID": "DE712", "route_type": "rail_long", "stop_name": "Frankfurt(M) Flughafen Fernbf" }, "geometry": { "type": "Point", "coordinates": [ 8.570185, 50.053165 ] } },
{ "type": "Feature", "properties": { "index": "r_l_n_905", "FID": "DE712", "route_type": "rail_long", "stop_name": "Frankfurt(M) Flughafen Fernbf" }, "geometry": { "type": "Point", "coordinates": [ 8.570185, 50.053165 ] } },
{ "type": "Feature", "properties": { "index": "r_l_n_1020", "FID": "DE712", "route_type": "rail_long", "stop_name": "Frankfurt(Main)Hbf" }, "geometry": { "type": "Point", "coordinates": [ 8.663789, 50.107143 ] } },
{ "type": "Feature", "properties": { "index": "r_l_n_1225", "FID": "DE712", "route_type": "rail_long", "stop_name": "Frankfurt(Main)Hbf" }, "geometry": { "type": "Point", "coordinates": [ 8.663789, 50.107143 ] } },
{ "type": "Feature", "properties": { "index": "r_l_n_1238", "FID": "DE712", "route_type": "rail_long", "stop_name": "Frankfurt(Main)Hbf" }, "geometry": { "type": "Point", "coordinates": [ 8.663789, 50.107143 ] } },
{ "type": "Feature", "properties": { "index": "r_l_n_1275", "FID": "DE712", "route_type": "rail_long", "stop_name": "Frankfurt(Main)Hbf" }, "geometry": { "type": "Point", "coordinates": [ 8.663789, 50.107143 ] } },
{ "type": "Feature", "properties": { "index": "r_l_n_173", "FID": "DE712", "route_type": "rail_long", "stop_name": "Frankfurt(Main)Hbf" }, "geometry": { "type": "Point", "coordinates": [ 8.663789, 50.107143 ] } },
{ "type": "Feature", "properties": { "index": "r_l_n_201", "FID": "DE712", "route_type": "rail_long", "stop_name": "Frankfurt(Main)Hbf" }, "geometry": { "type": "Point", "coordinates": [ 8.663789, 50.107143 ] } },
{ "type": "Feature", "properties": { "index": "r_l_n_297", "FID": "DE712", "route_type": "rail_long", "stop_name": "Frankfurt(Main)Hbf" }, "geometry": { "type": "Point", "coordinates": [ 8.663789, 50.107143 ] } },
{ "type": "Feature", "properties": { "index": "r_l_n_345", "FID": "DE712", "route_type": "rail_long", "stop_name": "Frankfurt(Main)Hbf" }, "geometry": { "type": "Point", "coordinates": [ 8.663789, 50.107143 ] } },
{ "type": "Feature", "properties": { "index": "r_l_n_349", "FID": "DE712", "route_type": "rail_long", "stop_name": "Frankfurt(Main)Hbf" }, "geometry": { "type": "Point", "coordinates": [ 8.663789, 50.107143 ] } },
{ "type": "Feature", "properties": { "index": "r_l_n_373", "FID": "DE712", "route_type": "rail_long", "stop_name": "Frankfurt(Main)Hbf" }, "geometry": { "type": "Point", "coordinates": [ 8.663789, 50.107143 ] } },
{ "type": "Feature", "properties": { "index": "r_l_n_463", "FID": "DE712", "route_type": "rail_long", "stop_name": "Frankfurt(Main)Hbf" }, "geometry": { "type": "Point", "coordinates": [ 8.663789, 50.107143 ] } },
{ "type": "Feature", "properties": { "index": "r_l_n_467", "FID": "DE712", "route_type": "rail_long", "stop_name": "Frankfurt(Main)Hbf" }, "geometry": { "type": "Point", "coordinates": [ 8.663789, 50.107143 ] } },
{ "type": "Feature", "properties": { "index": "r_l_n_631", "FID": "DE712", "route_type": "rail_long", "stop_name": "Frankfurt(Main)Hbf" }, "geometry": { "type": "Point", "coordinates": [ 8.663789, 50.107143 ] } },
{ "type": "Feature", "properties": { "index": "r_l_n_662", "FID": "DE712", "route_type": "rail_long", "stop_name": "Frankfurt(Main)Hbf" }, "geometry": { "type": "Point", "coordinates": [ 8.663789, 50.107143 ] } },
{ "type": "Feature", "properties": { "index": "r_l_n_726", "FID": "DE712", "route_type": "rail_long", "stop_name": "Frankfurt(Main)Hbf" }, "geometry": { "type": "Point", "coordinates": [ 8.663789, 50.107143 ] } },
{ "type": "Feature", "properties": { "index": "r_l_n_767", "FID": "DE712", "route_type": "rail_long", "stop_name": "Frankfurt(Main)Hbf" }, "geometry": { "type": "Point", "coordinates": [ 8.663789, 50.107143 ] } },
{ "type": "Feature", "properties": { "index": "r_l_n_817", "FID": "DE712", "route_type": "rail_long", "stop_name": "Frankfurt(Main)Hbf" }, "geometry": { "type": "Point", "coordinates": [ 8.663789, 50.107143 ] } },
{ "type": "Feature", "properties": { "index": "r_l_n_85", "FID": "DE712", "route_type": "rail_long", "stop_name": "Frankfurt(Main)Hbf" }, "geometry": { "type": "Point", "coordinates": [ 8.663789, 50.107143 ] } },
{ "type": "Feature", "properties": { "index": "r_l_n_910", "FID": "DE712", "route_type": "rail_long", "stop_name": "Frankfurt(Main)Hbf" }, "geometry": { "type": "Point", "coordinates": [ 8.663789, 50.107143 ] } },
{ "type": "Feature", "properties": { "index": "r_l_n_1211", "FID": "DE712", "route_type": "rail_long", "stop_name": "Frankfurt(Main)Süd" }, "geometry": { "type": "Point", "coordinates": [ 8.686457, 50.099365 ] } },
{ "type": "Feature", "properties": { "index": "r_l_n_779", "FID": "DE712", "route_type": "rail_long", "stop_name": "Frankfurt(Main)Süd" }, "geometry": { "type": "Point", "coordinates": [ 8.686457, 50.099365 ] } },
{ "type": "Feature", "properties": { "index": "r_l_n_1061", "FID": "DE712", "route_type": "rail_long", "stop_name": "Frankfurt(Main)West" }, "geometry": { "type": "Point", "coordinates": [ 8.639335, 50.118862 ] } },
{ "type": "Feature", "properties": { "index": "r_l_n_286", "FID": "DE712", "route_type": "rail_long", "stop_name": "Frankfurt(Main)West" }, "geometry": { "type": "Point", "coordinates": [ 8.639335, 50.118862 ] } },
{ "type": "Feature", "properties": { "index": "r_l_n_480", "FID": "DE403", "route_type": "rail_long", "stop_name": "Frankfurt(Oder)" }, "geometry": { "type": "Point", "coordinates": [ 14.546496, 52.336414 ] } },
{ "type": "Feature", "properties": { "index": "r_l_n_498", "FID": "DE403", "route_type": "rail_long", "stop_name": "Frankfurt(Oder)" }, "geometry": { "type": "Point", "coordinates": [ 14.546496, 52.336414 ] } },
{ "type": "Feature", "properties": { "index": "r_l_n_1243", "FID": "DE131", "route_type": "rail_long", "stop_name": "Freiburg(Breisgau) Hbf" }, "geometry": { "type": "Point", "coordinates": [ 7.84117, 47.997696 ] } },
{ "type": "Feature", "properties": { "index": "r_l_n_253", "FID": "DE131", "route_type": "rail_long", "stop_name": "Freiburg(Breisgau) Hbf" }, "geometry": { "type": "Point", "coordinates": [ 7.84117, 47.997696 ] } },
{ "type": "Feature", "properties": { "index": "r_l_n_396", "FID": "DE131", "route_type": "rail_long", "stop_name": "Freiburg(Breisgau) Hbf" }, "geometry": { "type": "Point", "coordinates": [ 7.84117, 47.997696 ] } },
{ "type": "Feature", "properties": { "index": "r_l_n_1254", "FID": "DE215", "route_type": "rail_long", "stop_name": "Freilassing" }, "geometry": { "type": "Point", "coordinates": [ 12.977193, 47.836918 ] } },
{ "type": "Feature", "properties": { "index": "r_l_n_218", "FID": "DE215", "route_type": "rail_long", "stop_name": "Freilassing" }, "geometry": { "type": "Point", "coordinates": [ 12.977193, 47.836918 ] } },
{ "type": "Feature", "properties": { "index": "r_l_n_687", "FID": "DE215", "route_type": "rail_long", "stop_name": "Freilassing" }, "geometry": { "type": "Point", "coordinates": [ 12.977193, 47.836918 ] } },
{ "type": "Feature", "properties": { "index": "r_l_n_868", "FID": "DE215", "route_type": "rail_long", "stop_name": "Freilassing" }, "geometry": { "type": "Point", "coordinates": [ 12.977193, 47.836918 ] } },
{ "type": "Feature", "properties": { "index": "r_l_n_872", "FID": "DE71E", "route_type": "rail_long", "stop_name": "Friedberg(Hess)" }, "geometry": { "type": "Point", "coordinates": [ 8.762056, 50.332607 ] } },
{ "type": "Feature", "properties": { "index": "r_l_n_996", "FID": "DE71E", "route_type": "rail_long", "stop_name": "Friedberg(Hess)" }, "geometry": { "type": "Point", "coordinates": [ 8.762056, 50.332607 ] } },
{ "type": "Feature", "properties": { "index": "r_l_n_131", "FID": "DE732", "route_type": "rail_long", "stop_name": "Fulda" }, "geometry": { "type": "Point", "coordinates": [ 9.683977, 50.55472 ] } },
{ "type": "Feature", "properties": { "index": "r_l_n_1400", "FID": "DE732", "route_type": "rail_long", "stop_name": "Fulda" }, "geometry": { "type": "Point", "coordinates": [ 9.683977, 50.55472 ] } },
{ "type": "Feature", "properties": { "index": "r_l_n_157", "FID": "DE732", "route_type": "rail_long", "stop_name": "Fulda" }, "geometry": { "type": "Point", "coordinates": [ 9.683977, 50.55472 ] } },
{ "type": "Feature", "properties": { "index": "r_l_n_225", "FID": "DE732", "route_type": "rail_long", "stop_name": "Fulda" }, "geometry": { "type": "Point", "coordinates": [ 9.683977, 50.55472 ] } },
{ "type": "Feature", "properties": { "index": "r_l_n_1034", "FID": "DE21D", "route_type": "rail_long", "stop_name": "Garmisch-Partenkirchen" }, "geometry": { "type": "Point", "coordinates": [ 11.097013, 47.49145 ] } },
{ "type": "Feature", "properties": { "index": "r_l_n_1218", "FID": "DE21D", "route_type": "rail_long", "stop_name": "Garmisch-Partenkirchen" }, "geometry": { "type": "Point", "coordinates": [ 11.097013, 47.49145 ] } },
{ "type": "Feature", "properties": { "index": "r_l_n_477", "FID": "DEA29", "route_type": "rail_long", "stop_name": "Geilenkirchen" }, "geometry": { "type": "Point", "coordinates": [ 6.124518, 50.96104 ] } },
{ "type": "Feature", "properties": { "index": "r_l_n_856", "FID": "DEA29", "route_type": "rail_long", "stop_name": "Geilenkirchen" }, "geometry": { "type": "Point", "coordinates": [ 6.124518, 50.96104 ] } },
{ "type": "Feature", "properties": { "index": "r_l_n_1138", "FID": "DE114", "route_type": "rail_long", "stop_name": "Geislingen(Steige)" }, "geometry": { "type": "Point", "coordinates": [ 9.841941, 48.619358 ] } },
{ "type": "Feature", "properties": { "index": "r_l_n_1", "FID": "DEA32", "route_type": "rail_long", "stop_name": "Gelsenkirchen Hbf" }, "geometry": { "type": "Point", "coordinates": [ 7.102455, 51.5049 ] } },
{ "type": "Feature", "properties": { "index": "r_l_n_197", "FID": "DEA32", "route_type": "rail_long", "stop_name": "Gelsenkirchen Hbf" }, "geometry": { "type": "Point", "coordinates": [ 7.102455, 51.5049 ] } },
{ "type": "Feature", "properties": { "index": "r_l_n_270", "FID": "DEA32", "route_type": "rail_long", "stop_name": "Gelsenkirchen Hbf" }, "geometry": { "type": "Point", "coordinates": [ 7.102455, 51.5049 ] } },
{ "type": "Feature", "properties": { "index": "r_l_n_694", "FID": "DEA32", "route_type": "rail_long", "stop_name": "Gelsenkirchen Hbf" }, "geometry": { "type": "Point", "coordinates": [ 7.102455, 51.5049 ] } },
{ "type": "Feature", "properties": { "index": "r_l_n_792", "FID": "DEA32", "route_type": "rail_long", "stop_name": "Gelsenkirchen Hbf" }, "geometry": { "type": "Point", "coordinates": [ 7.102455, 51.5049 ] } },
{ "type": "Feature", "properties": { "index": "r_l_n_336", "FID": "DEG02", "route_type": "rail_long", "stop_name": "Gera Hbf" }, "geometry": { "type": "Point", "coordinates": [ 12.077092, 50.883423 ] } },
{ "type": "Feature", "properties": { "index": "r_l_n_513", "FID": "DEG02", "route_type": "rail_long", "stop_name": "Gera Hbf" }, "geometry": { "type": "Point", "coordinates": [ 12.077092, 50.883423 ] } },
{ "type": "Feature", "properties": { "index": "r_l_n_537", "FID": "DE721", "route_type": "rail_long", "stop_name": "Gießen" }, "geometry": { "type": "Point", "coordinates": [ 8.661462, 50.57906 ] } },
{ "type": "Feature", "properties": { "index": "r_l_n_734", "FID": "DE721", "route_type": "rail_long", "stop_name": "Gießen" }, "geometry": { "type": "Point", "coordinates": [ 8.661462, 50.57906 ] } },
{ "type": "Feature", "properties": { "index": "r_l_n_1444", "FID": "DEG0C", "route_type": "rail_long", "stop_name": "Gotha" }, "geometry": { "type": "Point", "coordinates": [ 10.712568, 50.93907 ] } },
{ "type": "Feature", "properties": { "index": "r_l_n_483", "FID": "DEG0C", "route_type": "rail_long", "stop_name": "Gotha" }, "geometry": { "type": "Point", "coordinates": [ 10.712568, 50.93907 ] } },
{ "type": "Feature", "properties": { "index": "r_l_n_637", "FID": "DEG0C", "route_type": "rail_long", "stop_name": "Gotha" }, "geometry": { "type": "Point", "coordinates": [ 10.712568, 50.93907 ] } },
{ "type": "Feature", "properties": { "index": "r_l_n_900", "FID": "DEG0C", "route_type": "rail_long", "stop_name": "Gotha" }, "geometry": { "type": "Point", "coordinates": [ 10.712568, 50.93907 ] } },
{ "type": "Feature", "properties": { "index": "r_l_n_1009", "FID": "DE80N", "route_type": "rail_long", "stop_name": "Greifswald" }, "geometry": { "type": "Point", "coordinates": [ 13.370262, 54.092922 ] } },
{ "type": "Feature", "properties": { "index": "r_l_n_1395", "FID": "DE80N", "route_type": "rail_long", "stop_name": "Greifswald" }, "geometry": { "type": "Point", "coordinates": [ 13.370262, 54.092922 ] } },
{ "type": "Feature", "properties": { "index": "r_l_n_1297", "FID": "DE25C", "route_type": "rail_long", "stop_name": "Gunzenhausen" }, "geometry": { "type": "Point", "coordinates": [ 10.755463, 49.120445 ] } },
{ "type": "Feature", "properties": { "index": "r_l_n_424", "FID": "DE25C", "route_type": "rail_long", "stop_name": "Gunzenhausen" }, "geometry": { "type": "Point", "coordinates": [ 10.755463, 49.120445 ] } },
{ "type": "Feature", "properties": { "index": "r_l_n_1304", "FID": "DE112", "route_type": "rail_long", "stop_name": "Gäufelden" }, "geometry": { "type": "Point", "coordinates": [ 8.850308, 48.55966 ] } },
{ "type": "Feature", "properties": { "index": "r_l_n_677", "FID": "DE112", "route_type": "rail_long", "stop_name": "Gäufelden" }, "geometry": { "type": "Point", "coordinates": [ 8.850308, 48.55966 ] } },
{ "type": "Feature", "properties": { "index": "r_l_n_1126", "FID": "DE114", "route_type": "rail_long", "stop_name": "Göppingen" }, "geometry": { "type": "Point", "coordinates": [ 9.651969, 48.700027 ] } },
{ "type": "Feature", "properties": { "index": "r_l_n_822", "FID": "DE114", "route_type": "rail_long", "stop_name": "Göppingen" }, "geometry": { "type": "Point", "coordinates": [ 9.651969, 48.700027 ] } },
{ "type": "Feature", "properties": { "index": "r_l_n_1035", "FID": "DE91C", "route_type": "rail_long", "stop_name": "Göttingen" }, "geometry": { "type": "Point", "coordinates": [ 9.926072, 51.536816 ] } },
{ "type": "Feature", "properties": { "index": "r_l_n_1279", "FID": "DE91C", "route_type": "rail_long", "stop_name": "Göttingen" }, "geometry": { "type": "Point", "coordinates": [ 9.926072, 51.536816 ] } },
{ "type": "Feature", "properties": { "index": "r_l_n_392", "FID": "DE91C", "route_type": "rail_long", "stop_name": "Göttingen" }, "geometry": { "type": "Point", "coordinates": [ 9.926072, 51.536816 ] } },
{ "type": "Feature", "properties": { "index": "r_l_n_481", "FID": "DE91C", "route_type": "rail_long", "stop_name": "Göttingen" }, "geometry": { "type": "Point", "coordinates": [ 9.926072, 51.536816 ] } },
{ "type": "Feature", "properties": { "index": "r_l_n_1285", "FID": "DE278", "route_type": "rail_long", "stop_name": "Günzburg" }, "geometry": { "type": "Point", "coordinates": [ 10.279262, 48.460564 ] } },
{ "type": "Feature", "properties": { "index": "r_l_n_721", "FID": "DE278", "route_type": "rail_long", "stop_name": "Günzburg" }, "geometry": { "type": "Point", "coordinates": [ 10.279262, 48.460564 ] } },
{ "type": "Feature", "properties": { "index": "r_l_n_1419", "FID": "DEA42", "route_type": "rail_long", "stop_name": "Gütersloh Hbf" }, "geometry": { "type": "Point", "coordinates": [ 8.385071, 51.90694 ] } },
{ "type": "Feature", "properties": { "index": "r_l_n_59", "FID": "DEA42", "route_type": "rail_long", "stop_name": "Gütersloh Hbf" }, "geometry": { "type": "Point", "coordinates": [ 8.385071, 51.90694 ] } },
{ "type": "Feature", "properties": { "index": "r_l_n_1252", "FID": "DEA53", "route_type": "rail_long", "stop_name": "Hagen Hbf" }, "geometry": { "type": "Point", "coordinates": [ 7.460249, 51.362747 ] } },
{ "type": "Feature", "properties": { "index": "r_l_n_1284", "FID": "DEA53", "route_type": "rail_long", "stop_name": "Hagen Hbf" }, "geometry": { "type": "Point", "coordinates": [ 7.460249, 51.362747 ] } },
{ "type": "Feature", "properties": { "index": "r_l_n_242", "FID": "DEA53", "route_type": "rail_long", "stop_name": "Hagen Hbf" }, "geometry": { "type": "Point", "coordinates": [ 7.460249, 51.362747 ] } },
{ "type": "Feature", "properties": { "index": "r_l_n_709", "FID": "DEA53", "route_type": "rail_long", "stop_name": "Hagen Hbf" }, "geometry": { "type": "Point", "coordinates": [ 7.460249, 51.362747 ] } },
{ "type": "Feature", "properties": { "index": "r_l_n_729", "FID": "DEA53", "route_type": "rail_long", "stop_name": "Hagen Hbf" }, "geometry": { "type": "Point", "coordinates": [ 7.460249, 51.362747 ] } },
{ "type": "Feature", "properties": { "index": "r_l_n_759", "FID": "DEA53", "route_type": "rail_long", "stop_name": "Hagen Hbf" }, "geometry": { "type": "Point", "coordinates": [ 7.460249, 51.362747 ] } },
{ "type": "Feature", "properties": { "index": "r_l_n_1263", "FID": "DEE02", "route_type": "rail_long", "stop_name": "Halle(Saale)Hbf" }, "geometry": { "type": "Point", "coordinates": [ 11.987085, 51.47751 ] } },
{ "type": "Feature", "properties": { "index": "r_l_n_21", "FID": "DEE02", "route_type": "rail_long", "stop_name": "Halle(Saale)Hbf" }, "geometry": { "type": "Point", "coordinates": [ 11.987085, 51.47751 ] } },
{ "type": "Feature", "properties": { "index": "r_l_n_275", "FID": "DEE02", "route_type": "rail_long", "stop_name": "Halle(Saale)Hbf" }, "geometry": { "type": "Point", "coordinates": [ 11.987085, 51.47751 ] } },
{ "type": "Feature", "properties": { "index": "r_l_n_542", "FID": "DEE02", "route_type": "rail_long", "stop_name": "Halle(Saale)Hbf" }, "geometry": { "type": "Point", "coordinates": [ 11.987085, 51.47751 ] } },
{ "type": "Feature", "properties": { "index": "r_l_n_933", "FID": "DEE02", "route_type": "rail_long", "stop_name": "Halle(Saale)Hbf" }, "geometry": { "type": "Point", "coordinates": [ 11.987085, 51.47751 ] } },
{ "type": "Feature", "properties": { "index": "r_l_n_464", "FID": "DE600", "route_type": "rail_long", "stop_name": "Hamburg Dammtor" }, "geometry": { "type": "Point", "coordinates": [ 9.989566, 53.560753 ] } },
{ "type": "Feature", "properties": { "index": "r_l_n_740", "FID": "DE600", "route_type": "rail_long", "stop_name": "Hamburg Dammtor" }, "geometry": { "type": "Point", "coordinates": [ 9.989566, 53.560753 ] } },
{ "type": "Feature", "properties": { "index": "r_l_n_1006", "FID": "DE600", "route_type": "rail_long", "stop_name": "Hamburg Hbf" }, "geometry": { "type": "Point", "coordinates": [ 10.006909, 53.552734 ] } },
{ "type": "Feature", "properties": { "index": "r_l_n_1019", "FID": "DE600", "route_type": "rail_long", "stop_name": "Hamburg Hbf" }, "geometry": { "type": "Point", "coordinates": [ 10.006909, 53.552734 ] } },
{ "type": "Feature", "properties": { "index": "r_l_n_1209", "FID": "DE600", "route_type": "rail_long", "stop_name": "Hamburg Hbf" }, "geometry": { "type": "Point", "coordinates": [ 10.006909, 53.552734 ] } },
{ "type": "Feature", "properties": { "index": "r_l_n_1298", "FID": "DE600", "route_type": "rail_long", "stop_name": "Hamburg Hbf" }, "geometry": { "type": "Point", "coordinates": [ 10.006909, 53.552734 ] } },
{ "type": "Feature", "properties": { "index": "r_l_n_1302", "FID": "DE600", "route_type": "rail_long", "stop_name": "Hamburg Hbf" }, "geometry": { "type": "Point", "coordinates": [ 10.006909, 53.552734 ] } },
{ "type": "Feature", "properties": { "index": "r_l_n_1352", "FID": "DE600", "route_type": "rail_long", "stop_name": "Hamburg Hbf" }, "geometry": { "type": "Point", "coordinates": [ 10.006909, 53.552734 ] } },
{ "type": "Feature", "properties": { "index": "r_l_n_158", "FID": "DE600", "route_type": "rail_long", "stop_name": "Hamburg Hbf" }, "geometry": { "type": "Point", "coordinates": [ 10.006909, 53.552734 ] } },
{ "type": "Feature", "properties": { "index": "r_l_n_326", "FID": "DE600", "route_type": "rail_long", "stop_name": "Hamburg Hbf" }, "geometry": { "type": "Point", "coordinates": [ 10.006909, 53.552734 ] } },
{ "type": "Feature", "properties": { "index": "r_l_n_327", "FID": "DE600", "route_type": "rail_long", "stop_name": "Hamburg Hbf" }, "geometry": { "type": "Point", "coordinates": [ 10.006909, 53.552734 ] } },
{ "type": "Feature", "properties": { "index": "r_l_n_436", "FID": "DE600", "route_type": "rail_long", "stop_name": "Hamburg Hbf" }, "geometry": { "type": "Point", "coordinates": [ 10.006909, 53.552734 ] } },
{ "type": "Feature", "properties": { "index": "r_l_n_543", "FID": "DE600", "route_type": "rail_long", "stop_name": "Hamburg Hbf" }, "geometry": { "type": "Point", "coordinates": [ 10.006909, 53.552734 ] } },
{ "type": "Feature", "properties": { "index": "r_l_n_61", "FID": "DE600", "route_type": "rail_long", "stop_name": "Hamburg Hbf" }, "geometry": { "type": "Point", "coordinates": [ 10.006909, 53.552734 ] } },
{ "type": "Feature", "properties": { "index": "r_l_n_634", "FID": "DE600", "route_type": "rail_long", "stop_name": "Hamburg Hbf" }, "geometry": { "type": "Point", "coordinates": [ 10.006909, 53.552734 ] } },
{ "type": "Feature", "properties": { "index": "r_l_n_1117", "FID": "DE600", "route_type": "rail_long", "stop_name": "Hamburg-Altona" }, "geometry": { "type": "Point", "coordinates": [ 9.935175, 53.552696 ] } },
{ "type": "Feature", "properties": { "index": "r_l_n_1148", "FID": "DE600", "route_type": "rail_long", "stop_name": "Hamburg-Altona" }, "geometry": { "type": "Point", "coordinates": [ 9.935175, 53.552696 ] } },
{ "type": "Feature", "properties": { "index": "r_l_n_1340", "FID": "DE600", "route_type": "rail_long", "stop_name": "Hamburg-Altona" }, "geometry": { "type": "Point", "coordinates": [ 9.935175, 53.552696 ] } },
{ "type": "Feature", "properties": { "index": "r_l_n_1343", "FID": "DE600", "route_type": "rail_long", "stop_name": "Hamburg-Altona" }, "geometry": { "type": "Point", "coordinates": [ 9.935175, 53.552696 ] } },
{ "type": "Feature", "properties": { "index": "r_l_n_19", "FID": "DE600", "route_type": "rail_long", "stop_name": "Hamburg-Altona" }, "geometry": { "type": "Point", "coordinates": [ 9.935175, 53.552696 ] } },
{ "type": "Feature", "properties": { "index": "r_l_n_310", "FID": "DE600", "route_type": "rail_long", "stop_name": "Hamburg-Altona" }, "geometry": { "type": "Point", "coordinates": [ 9.935175, 53.552696 ] } },
{ "type": "Feature", "properties": { "index": "r_l_n_400", "FID": "DE600", "route_type": "rail_long", "stop_name": "Hamburg-Altona" }, "geometry": { "type": "Point", "coordinates": [ 9.935175, 53.552696 ] } },
{ "type": "Feature", "properties": { "index": "r_l_n_490", "FID": "DE600", "route_type": "rail_long", "stop_name": "Hamburg-Altona" }, "geometry": { "type": "Point", "coordinates": [ 9.935175, 53.552696 ] } },
{ "type": "Feature", "properties": { "index": "r_l_n_644", "FID": "DE600", "route_type": "rail_long", "stop_name": "Hamburg-Altona" }, "geometry": { "type": "Point", "coordinates": [ 9.935175, 53.552696 ] } },
{ "type": "Feature", "properties": { "index": "r_l_n_1111", "FID": "DE600", "route_type": "rail_long", "stop_name": "Hamburg-Bergedorf" }, "geometry": { "type": "Point", "coordinates": [ 10.206171, 53.489834 ] } },
{ "type": "Feature", "properties": { "index": "r_l_n_934", "FID": "DE600", "route_type": "rail_long", "stop_name": "Hamburg-Bergedorf" }, "geometry": { "type": "Point", "coordinates": [ 10.206171, 53.489834 ] } },
{ "type": "Feature", "properties": { "index": "r_l_n_1094", "FID": "DE600", "route_type": "rail_long", "stop_name": "Hamburg-Harburg" }, "geometry": { "type": "Point", "coordinates": [ 9.991701, 53.45591 ] } },
{ "type": "Feature", "properties": { "index": "r_l_n_1350", "FID": "DE600", "route_type": "rail_long", "stop_name": "Hamburg-Harburg" }, "geometry": { "type": "Point", "coordinates": [ 9.991701, 53.45591 ] } },
{ "type": "Feature", "properties": { "index": "r_l_n_262", "FID": "DE600", "route_type": "rail_long", "stop_name": "Hamburg-Harburg" }, "geometry": { "type": "Point", "coordinates": [ 9.991701, 53.45591 ] } },
{ "type": "Feature", "properties": { "index": "r_l_n_610", "FID": "DE600", "route_type": "rail_long", "stop_name": "Hamburg-Harburg" }, "geometry": { "type": "Point", "coordinates": [ 9.991701, 53.45591 ] } },
{ "type": "Feature", "properties": { "index": "r_l_n_648", "FID": "DE600", "route_type": "rail_long", "stop_name": "Hamburg-Harburg" }, "geometry": { "type": "Point", "coordinates": [ 9.991701, 53.45591 ] } },
{ "type": "Feature", "properties": { "index": "r_l_n_879", "FID": "DE600", "route_type": "rail_long", "stop_name": "Hamburg-Harburg" }, "geometry": { "type": "Point", "coordinates": [ 9.991701, 53.45591 ] } },
{ "type": "Feature", "properties": { "index": "r_l_n_1018", "FID": "DEA54", "route_type": "rail_long", "stop_name": "Hamm(Westf)Hbf" }, "geometry": { "type": "Point", "coordinates": [ 7.807821, 51.678078 ] } },
{ "type": "Feature", "properties": { "index": "r_l_n_1101", "FID": "DEA54", "route_type": "rail_long", "stop_name": "Hamm(Westf)Hbf" }, "geometry": { "type": "Point", "coordinates": [ 7.807821, 51.678078 ] } },
{ "type": "Feature", "properties": { "index": "r_l_n_1345", "FID": "DEA54", "route_type": "rail_long", "stop_name": "Hamm(Westf)Hbf" }, "geometry": { "type": "Point", "coordinates": [ 7.807821, 51.678078 ] } },
{ "type": "Feature", "properties": { "index": "r_l_n_1359", "FID": "DEA54", "route_type": "rail_long", "stop_name": "Hamm(Westf)Hbf" }, "geometry": { "type": "Point", "coordinates": [ 7.807821, 51.678078 ] } },
{ "type": "Feature", "properties": { "index": "r_l_n_533", "FID": "DEA54", "route_type": "rail_long", "stop_name": "Hamm(Westf)Hbf" }, "geometry": { "type": "Point", "coordinates": [ 7.807821, 51.678078 ] } },
{ "type": "Feature", "properties": { "index": "r_l_n_1007", "FID": "DE719", "route_type": "rail_long", "stop_name": "Hanau Hbf" }, "geometry": { "type": "Point", "coordinates": [ 8.929, 50.120953 ] } },
{ "type": "Feature", "properties": { "index": "r_l_n_1047", "FID": "DE719", "route_type": "rail_long", "stop_name": "Hanau Hbf" }, "geometry": { "type": "Point", "coordinates": [ 8.929, 50.120953 ] } },
{ "type": "Feature", "properties": { "index": "r_l_n_199", "FID": "DE719", "route_type": "rail_long", "stop_name": "Hanau Hbf" }, "geometry": { "type": "Point", "coordinates": [ 8.929, 50.120953 ] } },
{ "type": "Feature", "properties": { "index": "r_l_n_3", "FID": "DE719", "route_type": "rail_long", "stop_name": "Hanau Hbf" }, "geometry": { "type": "Point", "coordinates": [ 8.929, 50.120953 ] } },
{ "type": "Feature", "properties": { "index": "r_l_n_350", "FID": "DE719", "route_type": "rail_long", "stop_name": "Hanau Hbf" }, "geometry": { "type": "Point", "coordinates": [ 8.929, 50.120953 ] } },
{ "type": "Feature", "properties": { "index": "r_l_n_706", "FID": "DE719", "route_type": "rail_long", "stop_name": "Hanau Hbf" }, "geometry": { "type": "Point", "coordinates": [ 8.929, 50.120953 ] } },
{ "type": "Feature", "properties": { "index": "r_l_n_1014", "FID": "DE929", "route_type": "rail_long", "stop_name": "Hannover Hbf" }, "geometry": { "type": "Point", "coordinates": [ 9.741021, 52.376762 ] } },
{ "type": "Feature", "properties": { "index": "r_l_n_1064", "FID": "DE929", "route_type": "rail_long", "stop_name": "Hannover Hbf" }, "geometry": { "type": "Point", "coordinates": [ 9.741021, 52.376762 ] } },
{ "type": "Feature", "properties": { "index": "r_l_n_1161", "FID": "DE929", "route_type": "rail_long", "stop_name": "Hannover Hbf" }, "geometry": { "type": "Point", "coordinates": [ 9.741021, 52.376762 ] } },
{ "type": "Feature", "properties": { "index": "r_l_n_1163", "FID": "DE929", "route_type": "rail_long", "stop_name": "Hannover Hbf" }, "geometry": { "type": "Point", "coordinates": [ 9.741021, 52.376762 ] } },
{ "type": "Feature", "properties": { "index": "r_l_n_1217", "FID": "DE929", "route_type": "rail_long", "stop_name": "Hannover Hbf" }, "geometry": { "type": "Point", "coordinates": [ 9.741021, 52.376762 ] } },
{ "type": "Feature", "properties": { "index": "r_l_n_1224", "FID": "DE929", "route_type": "rail_long", "stop_name": "Hannover Hbf" }, "geometry": { "type": "Point", "coordinates": [ 9.741021, 52.376762 ] } },
{ "type": "Feature", "properties": { "index": "r_l_n_205", "FID": "DE929", "route_type": "rail_long", "stop_name": "Hannover Hbf" }, "geometry": { "type": "Point", "coordinates": [ 9.741021, 52.376762 ] } },
{ "type": "Feature", "properties": { "index": "r_l_n_257", "FID": "DE929", "route_type": "rail_long", "stop_name": "Hannover Hbf" }, "geometry": { "type": "Point", "coordinates": [ 9.741021, 52.376762 ] } },
{ "type": "Feature", "properties": { "index": "r_l_n_328", "FID": "DE929", "route_type": "rail_long", "stop_name": "Hannover Hbf" }, "geometry": { "type": "Point", "coordinates": [ 9.741021, 52.376762 ] } },
{ "type": "Feature", "properties": { "index": "r_l_n_343", "FID": "DE929", "route_type": "rail_long", "stop_name": "Hannover Hbf" }, "geometry": { "type": "Point", "coordinates": [ 9.741021, 52.376762 ] } },
{ "type": "Feature", "properties": { "index": "r_l_n_535", "FID": "DE929", "route_type": "rail_long", "stop_name": "Hannover Hbf" }, "geometry": { "type": "Point", "coordinates": [ 9.741021, 52.376762 ] } },
{ "type": "Feature", "properties": { "index": "r_l_n_586", "FID": "DE929", "route_type": "rail_long", "stop_name": "Hannover Hbf" }, "geometry": { "type": "Point", "coordinates": [ 9.741021, 52.376762 ] } },
{ "type": "Feature", "properties": { "index": "r_l_n_63", "FID": "DE929", "route_type": "rail_long", "stop_name": "Hannover Hbf" }, "geometry": { "type": "Point", "coordinates": [ 9.741021, 52.376762 ] } },
{ "type": "Feature", "properties": { "index": "r_l_n_9", "FID": "DE929", "route_type": "rail_long", "stop_name": "Hannover Hbf" }, "geometry": { "type": "Point", "coordinates": [ 9.741021, 52.376762 ] } },
{ "type": "Feature", "properties": { "index": "r_l_n_929", "FID": "DE929", "route_type": "rail_long", "stop_name": "Hannover Hbf" }, "geometry": { "type": "Point", "coordinates": [ 9.741021, 52.376762 ] } },
{ "type": "Feature", "properties": { "index": "r_l_n_588", "FID": "DE929", "route_type": "rail_long", "stop_name": "Hannover Messe\/Laatzen" }, "geometry": { "type": "Point", "coordinates": [ 9.792863, 52.3169 ] } },
{ "type": "Feature", "properties": { "index": "r_l_n_142", "FID": "DE134", "route_type": "rail_long", "stop_name": "Hausach" }, "geometry": { "type": "Point", "coordinates": [ 8.181665, 48.284924 ] } },
{ "type": "Feature", "properties": { "index": "r_l_n_855", "FID": "DE134", "route_type": "rail_long", "stop_name": "Hausach" }, "geometry": { "type": "Point", "coordinates": [ 8.181665, 48.284924 ] } },
{ "type": "Feature", "properties": { "index": "r_l_n_1200", "FID": "DEF05", "route_type": "rail_long", "stop_name": "Heide(Holst)" }, "geometry": { "type": "Point", "coordinates": [ 9.101029, 54.19356 ] } },
{ "type": "Feature", "properties": { "index": "r_l_n_47", "FID": "DEF05", "route_type": "rail_long", "stop_name": "Heide(Holst)" }, "geometry": { "type": "Point", "coordinates": [ 9.101029, 54.19356 ] } },
{ "type": "Feature", "properties": { "index": "r_l_n_1258", "FID": "DE125", "route_type": "rail_long", "stop_name": "Heidelberg Hbf" }, "geometry": { "type": "Point", "coordinates": [ 8.675442, 49.40357 ] } },
{ "type": "Feature", "properties": { "index": "r_l_n_1360", "FID": "DE125", "route_type": "rail_long", "stop_name": "Heidelberg Hbf" }, "geometry": { "type": "Point", "coordinates": [ 8.675442, 49.40357 ] } },
{ "type": "Feature", "properties": { "index": "r_l_n_161", "FID": "DE125", "route_type": "rail_long", "stop_name": "Heidelberg Hbf" }, "geometry": { "type": "Point", "coordinates": [ 8.675442, 49.40357 ] } },
{ "type": "Feature", "properties": { "index": "r_l_n_559", "FID": "DE125", "route_type": "rail_long", "stop_name": "Heidelberg Hbf" }, "geometry": { "type": "Point", "coordinates": [ 8.675442, 49.40357 ] } },
{ "type": "Feature", "properties": { "index": "r_l_n_824", "FID": "DE125", "route_type": "rail_long", "stop_name": "Heidelberg Hbf" }, "geometry": { "type": "Point", "coordinates": [ 8.675442, 49.40357 ] } },
{ "type": "Feature", "properties": { "index": "r_l_n_864", "FID": "DE125", "route_type": "rail_long", "stop_name": "Heidelberg Hbf" }, "geometry": { "type": "Point", "coordinates": [ 8.675442, 49.40357 ] } },
{ "type": "Feature", "properties": { "index": "r_l_n_950", "FID": "DE125", "route_type": "rail_long", "stop_name": "Heidelberg Hbf" }, "geometry": { "type": "Point", "coordinates": [ 8.675442, 49.40357 ] } },
{ "type": "Feature", "properties": { "index": "r_l_n_151", "FID": "DE917", "route_type": "rail_long", "stop_name": "Helmstedt" }, "geometry": { "type": "Point", "coordinates": [ 11.010553, 52.222088 ] } },
{ "type": "Feature", "properties": { "index": "r_l_n_700", "FID": "DE917", "route_type": "rail_long", "stop_name": "Helmstedt" }, "geometry": { "type": "Point", "coordinates": [ 11.010553, 52.222088 ] } },
{ "type": "Feature", "properties": { "index": "r_l_n_1394", "FID": "DE715", "route_type": "rail_long", "stop_name": "Heppenheim(Bergstr)" }, "geometry": { "type": "Point", "coordinates": [ 8.633379, 49.641552 ] } },
{ "type": "Feature", "properties": { "index": "r_l_n_263", "FID": "DE715", "route_type": "rail_long", "stop_name": "Heppenheim(Bergstr)" }, "geometry": { "type": "Point", "coordinates": [ 8.633379, 49.641552 ] } },
{ "type": "Feature", "properties": { "index": "r_l_n_110", "FID": "DEA43", "route_type": "rail_long", "stop_name": "Herford" }, "geometry": { "type": "Point", "coordinates": [ 8.663643, 52.11961 ] } },
{ "type": "Feature", "properties": { "index": "r_l_n_1250", "FID": "DEA43", "route_type": "rail_long", "stop_name": "Herford" }, "geometry": { "type": "Point", "coordinates": [ 8.663643, 52.11961 ] } },
{ "type": "Feature", "properties": { "index": "r_l_n_1316", "FID": "DEG0J", "route_type": "rail_long", "stop_name": "Hermsdorf-Klosterlausnitz" }, "geometry": { "type": "Point", "coordinates": [ 11.858626, 50.903778 ] } },
{ "type": "Feature", "properties": { "index": "r_l_n_580", "FID": "DEG0J", "route_type": "rail_long", "stop_name": "Hermsdorf-Klosterlausnitz" }, "geometry": { "type": "Point", "coordinates": [ 11.858626, 50.903778 ] } },
{ "type": "Feature", "properties": { "index": "r_l_n_233", "FID": "DE112", "route_type": "rail_long", "stop_name": "Herrenberg" }, "geometry": { "type": "Point", "coordinates": [ 8.862662, 48.59399 ] } },
{ "type": "Feature", "properties": { "index": "r_l_n_876", "FID": "DE112", "route_type": "rail_long", "stop_name": "Herrenberg" }, "geometry": { "type": "Point", "coordinates": [ 8.862662, 48.59399 ] } },
{ "type": "Feature", "properties": { "index": "r_l_n_1120", "FID": "DEA2D", "route_type": "rail_long", "stop_name": "Herzogenrath" }, "geometry": { "type": "Point", "coordinates": [ 6.094486, 50.870914 ] } },
{ "type": "Feature", "properties": { "index": "r_l_n_1301", "FID": "DEA2D", "route_type": "rail_long", "stop_name": "Herzogenrath" }, "geometry": { "type": "Point", "coordinates": [ 6.094486, 50.870914 ] } },
{ "type": "Feature", "properties": { "index": "r_l_n_599", "FID": "DE925", "route_type": "rail_long", "stop_name": "Hildesheim Hbf" }, "geometry": { "type": "Point", "coordinates": [ 9.953497, 52.160625 ] } },
{ "type": "Feature", "properties": { "index": "r_l_n_926", "FID": "DE925", "route_type": "rail_long", "stop_name": "Hildesheim Hbf" }, "geometry": { "type": "Point", "coordinates": [ 9.953497, 52.160625 ] } },
{ "type": "Feature", "properties": { "index": "r_l_n_56", "FID": "DEC05", "route_type": "rail_long", "stop_name": "Homburg(Saar)Hbf" }, "geometry": { "type": "Point", "coordinates": [ 7.337035, 49.328083 ] } },
{ "type": "Feature", "properties": { "index": "r_l_n_620", "FID": "DEC05", "route_type": "rail_long", "stop_name": "Homburg(Saar)Hbf" }, "geometry": { "type": "Point", "coordinates": [ 7.337035, 49.328083 ] } },
{ "type": "Feature", "properties": { "index": "r_l_n_406", "FID": "DE12C", "route_type": "rail_long", "stop_name": "Horb" },